<?xml version="1.0" encoding="UTF-8"?>
<!DOCTYPE A_list SYSTEM "../../dtd/alist/A_list.dtd">
<A_list>
<pubPlace id="place_0001">
<regName>Aachen</regName>
<curName/>
<country>GM</country>
<coordinates>
<latitude>50.7667</latitude>
<longitude>6.1000</longitude>
</coordinates>
<variants>
<variant>
<name>Aachen</name>
<instances>332</instances>
</variant>
</variants>
<notes/>
</pubPlace>
<pubPlace id="place_0002">
<regName>Aarau</regName>
<curName/>
<country>SZ</country>
<coordinates>
<latitude>47.4000</latitude>
<longitude>8.0667</longitude>
</coordinates>
<variants>
<variant>
<name>Aarau</name>
<instances>10</instances>
</variant>
<variant>
<name>Arau</name>
<instances>2</instances>
</variant>
</variants>
<notes>
<note>Sauerländer (Gustav Bergmann).</note>
</notes>
</pubPlace>
<pubPlace id="place_0003">
<regName>Allenstein</regName>
<curName>Olsztyn</curName>
<country>PL</country>
<coordinates>
<latitude>53.8000</latitude>
<longitude>20.4833</longitude>
</coordinates>
<variants>
<variant>
<name>Altenstein</name>
<instances>1</instances>
</variant>
</variants>
<notes>
<note>später Olsztyn &lt;Lyna&gt;.</note>
</notes>
</pubPlace>
<pubPlace id="place_0004">
<regName>Allentown &lt;Pa.&gt;</regName>
<curName/>
<country>US</country>
<coordinates>
<latitude/>
<longitude/>
</coordinates>
<variants>
<variant>
<name>Allentown</name>
<instances>1</instances>
</variant>
</variants>
<notes>
<note>2 possibilities in Getty, I think.</note>
</notes>
</pubPlace>
<pubPlace id="place_0005">
<regName>Alsleben &lt;Saale&gt;</regName>
<curName/>
<country>GM</country>
<coordinates>
<latitude>51.7167</latitude>
<longitude>11.6667</longitude>
</coordinates>
<variants>
<variant>
<name>Alsleben</name>
<instances>1</instances>
</variant>
</variants>
<notes>
<note>publisher Schlegel.</note>
</notes>
</pubPlace>
<pubPlace id="place_0006">
<regName>Altdorf</regName>
<curName/>
<country/>
<coordinates>
<latitude/>
<longitude/>
</coordinates>
<variants>
<variant>
<name>Altdorf</name>
<instances>5</instances>
</variant>
</variants>
<notes>
<note>several possibilities - cannot really determine. Self-publisher of 5 works.</note>
</notes>
</pubPlace>
<pubPlace id="place_0007">
<regName>Altenburg &lt;Thüringen&gt;</regName>
<curName/>
<country>GM</country>
<coordinates>
<latitude>50.9833</latitude>
<longitude>12.4500</longitude>
</coordinates>
<variants>
<variant>
<name>Altenburg</name>
<instances>232</instances>
</variant>
<variant>
<name>Altenhurg</name>
<instances>93</instances>
</variant>
</variants>
<notes/>
</pubPlace>
<pubPlace id="place_0008">
<regName>Altona &lt;Hamburg&gt;</regName>
<curName/>
<country>GM</country>
<coordinates>
<latitude>53.5500</latitude>
<longitude>9.9333</longitude>
</coordinates>
<variants>
<variant>
<name>Altona</name>
<instances>321</instances>
</variant>
</variants>
<notes>
<note>GKD-Ansetzung: Altona später Hamburg-Altona.</note>
</notes>
</pubPlace>
<pubPlace id="place_0009">
<regName>Alzey</regName>
<curName/>
<country>GM</country>
<coordinates>
<latitude>49.7500</latitude>
<longitude>8.1167</longitude>
</coordinates>
<variants>
<variant>
<name>Alzey</name>
<instances>8</instances>
</variant>
</variants>
<notes/>
</pubPlace>
<pubPlace id="place_0010">
<regName>Amberg &lt;Oberpfalz&gt;</regName>
<curName/>
<country>GM</country>
<coordinates>
<latitude>49.4500</latitude>
<longitude>11.8667</longitude>
</coordinates>
<variants>
<variant>
<name>Amberg</name>
<instances>1</instances>
</variant>
</variants>
<notes/>
</pubPlace>
<pubPlace id="place_0011">
<regName>Amsterdam</regName>
<curName/>
<country>NL</country>
<coordinates>
<latitude>52.3500</latitude>
<longitude>4.9000</longitude>
</coordinates>
<variants>
<variant>
<name>Amsterd</name>
<instances>144</instances>
</variant>
<variant>
<name>Amsterdam</name>
<instances>370</instances>
</variant>
</variants>
<notes/>
</pubPlace>
<pubPlace id="place_0012">
<regName>Andernach</regName>
<curName/>
<country>GM</country>
<coordinates>
<latitude>50.4333</latitude>
<longitude>7.4000</longitude>
</coordinates>
<variants>
<variant>
<name>Andernach</name>
<instances>1</instances>
</variant>
</variants>
<notes/>
</pubPlace>
<pubPlace id="place_0013">
<regName>Anklam</regName>
<curName/>
<country>GM</country>
<coordinates>
<latitude>53.8667</latitude>
<longitude>13.7000</longitude>
</coordinates>
<variants>
<variant>
<name>Anclam</name>
<instances>8</instances>
</variant>
<variant>
<name>Anklam</name>
<instances>10</instances>
</variant>
</variants>
<notes/>
</pubPlace>
<pubPlace id="place_0014">
<regName>Annaberg &lt;Erzgebirge&gt;</regName>
<curName/>
<country>GM</country>
<coordinates>
<latitude>50.5667</latitude>
<longitude>13.0000</longitude>
</coordinates>
<variants>
<variant>
<name>Annaberg</name>
<instances>25</instances>
</variant>
</variants>
<notes>
<note>later Annaberg-Buchholz.</note>
</notes>
</pubPlace>
<pubPlace id="place_0015">
<regName>Ansbach</regName>
<curName/>
<country>GM</country>
<coordinates>
<latitude>49.3000</latitude>
<longitude>10.5500</longitude>
</coordinates>
<variants>
<variant>
<name>Ansbach</name>
<instances>4</instances>
</variant>
</variants>
<notes/>
</pubPlace>
<pubPlace id="place_0016">
<regName>Antwerpen</regName>
<curName/>
<country>BE</country>
<coordinates>
<latitude>51.2167</latitude>
<longitude>4.4167</longitude>
</coordinates>
<variants>
<variant>
<name>Antwerpen</name>
<instances>2</instances>
</variant>
</variants>
<notes/>
</pubPlace>
<pubPlace id="place_0017">
<regName>Apolda</regName>
<curName/>
<country>GM</country>
<coordinates>
<latitude>51.0167</latitude>
<longitude>11.5000</longitude>
</coordinates>
<variants>
<variant>
<name>Apolda</name>
<instances>9</instances>
</variant>
</variants>
<notes/>
</pubPlace>
<pubPlace id="place_0018">
<regName>Arnheim</regName>
<curName/>
<country>NL</country>
<coordinates>
<latitude>52.0000</latitude>
<longitude>5.8833</longitude>
</coordinates>
<variants>
<variant>
<name>Arnheim</name>
<instances>40</instances>
</variant>
<variant>
<name>Arnhem</name>
<instances>29</instances>
</variant>
</variants>
<notes>
<note>double check this - see CK file (Arnhem) - is it the same?.</note>
</notes>
</pubPlace>
<pubPlace id="place_0019">
<regName>Arnsberg</regName>
<curName/>
<country>GM</country>
<coordinates>
<latitude>51.3833</latitude>
<longitude>8.05000</longitude>
</coordinates>
<variants>
<variant>
<name>Arensberg</name>
<instances>8</instances>
</variant>
<variant>
<name>Arnsberg</name>
<instances>27</instances>
</variant>
</variants>
<notes/>
</pubPlace>
<pubPlace id="place_0020">
<regName>Arnstadt</regName>
<curName/>
<country>GM</country>
<coordinates>
<latitude>50.8333</latitude>
<longitude>10.9500</longitude>
</coordinates>
<variants>
<variant>
<name>Arnstadt</name>
<instances>4</instances>
</variant>
</variants>
<notes/>
</pubPlace>
<pubPlace id="place_0021">
<regName>Arnswalde</regName>
<curName>Choszczno</curName>
<country>PL</country>
<coordinates>
<latitude>53.1667</latitude>
<longitude>15.4000</longitude>
</coordinates>
<variants>
<variant>
<name>Arnswalde</name>
<instances>2</instances>
</variant>
</variants>
<notes>
<note>poss Choszczno in Poland now?.</note>
</notes>
</pubPlace>
<pubPlace id="place_0022">
<regName>Arolsen</regName>
<curName/>
<country>GM</country>
<coordinates>
<latitude>51.3667</latitude>
<longitude>9.0167</longitude>
</coordinates>
<variants>
<variant>
<name>Arolsen</name>
<instances>8</instances>
</variant>
</variants>
<notes/>
</pubPlace>
<pubPlace id="place_0023">
<regName>Arys</regName>
<curName>Orzysz</curName>
<country>PL</country>
<coordinates>
<latitude>53.8333</latitude>
<longitude>21.9667</longitude>
</coordinates>
<variants>
<variant>
<name>Arys</name>
<instances>12</instances>
</variant>
</variants>
<notes>
<note>now Orzysz? Publisher = Arendt, H. &amp; W. (wohl PL wg. Polonaisen+Polka).</note>
</notes>
</pubPlace>
<pubPlace id="place_0024">
<regName>Aschaffenburg</regName>
<curName/>
<country>GM</country>
<coordinates>
<latitude>49.9833</latitude>
<longitude>9.1500</longitude>
</coordinates>
<variants>
<variant>
<name>Aschaffenburg</name>
<instances>5</instances>
</variant>
</variants>
<notes/>
</pubPlace>
<pubPlace id="place_0025">
<regName>Aschersleben &lt;Halle, Saale&gt;</regName>
<curName/>
<country>GM</country>
<coordinates>
<latitude>51.7500</latitude>
<longitude>11.4667</longitude>
</coordinates>
<variants>
<variant>
<name>Aschersleben</name>
<instances>42</instances>
</variant>
</variants>
<notes/>
</pubPlace>
<pubPlace id="place_0026">
<regName>Augsburg</regName>
<curName/>
<country>GM</country>
<coordinates>
<latitude>48.3500</latitude>
<longitude>10.9000</longitude>
</coordinates>
<variants>
<variant>
<name>Augsb</name>
<instances>1245</instances>
</variant>
<variant>
<name>Augsburg</name>
<instances>1513</instances>
</variant>
</variants>
<notes/>
</pubPlace>
<pubPlace id="place_0027">
<regName>Aurich</regName>
<curName/>
<country>GM</country>
<coordinates>
<latitude>53.4667</latitude>
<longitude>7.4833</longitude>
</coordinates>
<variants>
<variant>
<name>Aurich</name>
<instances>6</instances>
</variant>
</variants>
<notes/>
</pubPlace>
<pubPlace id="place_0028">
<regName>Aussig</regName>
<curName>Ústi nad Labem</curName>
<country>EZ</country>
<coordinates>
<latitude>50.6833</latitude>
<longitude>14.0000</longitude>
</coordinates>
<variants>
<variant>
<name>Aussig</name>
<instances>11</instances>
</variant>
</variants>
<notes>
<note>Ústi nad Labem.</note>
</notes>
</pubPlace>
<pubPlace id="place_0029">
<regName>Bad Kreuznach</regName>
<curName/>
<country>GM</country>
<coordinates>
<latitude>49.85</latitude>
<longitude>7.8667</longitude>
</coordinates>
<variants>
<variant>
<name>Bad Kreuznach</name>
<instances>1</instances>
</variant>
</variants>
<notes/>
</pubPlace>
<pubPlace id="place_0030">
<regName>Baden &lt;Aargau&gt;</regName>
<curName/>
<country>SZ</country>
<coordinates>
<latitude>47.4667</latitude>
<longitude>8.3167</longitude>
</coordinates>
<variants>
<variant>
<name>Baden</name>
<instances>5</instances>
</variant>
</variants>
<notes>
<note>NB. Another way of citing this in GR: Baden &lt;Limmat&gt;???.</note>
</notes>
</pubPlace>
<pubPlace id="place_0031">
<regName>Baden-Baden</regName>
<curName/>
<country>GM</country>
<coordinates>
<latitude>48.7500</latitude>
<longitude>8.2500</longitude>
</coordinates>
<variants>
<variant>
<name>Baden-Baden</name>
<instances>189</instances>
</variant>
</variants>
<notes>
<note>Zehnder'sche Buchh./Sommermeyer.</note>
</notes>
</pubPlace>
<pubPlace id="place_0032">
<regName>Ballenstedt</regName>
<curName/>
<country>GM</country>
<coordinates>
<latitude>51.7167</latitude>
<longitude>11.2500</longitude>
</coordinates>
<variants>
<variant>
<name>Ballenstedt</name>
<instances>2</instances>
</variant>
</variants>
<notes/>
</pubPlace>
<pubPlace id="place_0033">
<regName>Bamberg</regName>
<curName/>
<country>GM</country>
<coordinates>
<latitude>49.9000</latitude>
<longitude>10.9000</longitude>
</coordinates>
<variants>
<variant>
<name>Bamberg</name>
<instances>22</instances>
</variant>
</variants>
<notes/>
</pubPlace>
<pubPlace id="place_0034">
<regName>Barmen</regName>
<curName/>
<country>GM</country>
<coordinates>
<latitude>51.2833</latitude>
<longitude>7.2167</longitude>
</coordinates>
<variants>
<variant>
<name>Barmen</name>
<instances>42</instances>
</variant>
</variants>
<notes/>
</pubPlace>
<pubPlace id="place_0035">
<regName>Basel</regName>
<curName/>
<country>SZ</country>
<coordinates>
<latitude>47.5500</latitude>
<longitude>7.6000</longitude>
</coordinates>
<variants>
<variant>
<name>Basel</name>
<instances>238</instances>
</variant>
</variants>
<notes/>
</pubPlace>
<pubPlace id="place_0036">
<regName>Bautzen</regName>
<curName/>
<country>GM</country>
<coordinates>
<latitude>51.1833</latitude>
<longitude>14.4833</longitude>
</coordinates>
<variants>
<variant>
<name>Bautzen</name>
<instances>20</instances>
</variant>
</variants>
<notes/>
</pubPlace>
<pubPlace id="place_0037">
<regName>Bayreuth</regName>
<curName/>
<country>GM</country>
<coordinates>
<latitude>49.4500</latitude>
<longitude>11.5833</longitude>
</coordinates>
<variants>
<variant>
<name>Baireuth</name>
<instances>6</instances>
</variant>
<variant>
<name>Bayreuth</name>
<instances>194</instances>
</variant>
</variants>
<notes/>
</pubPlace>
<pubPlace id="place_0038">
<regName>Belgrad</regName>
<curName>Beograd</curName>
<country>SR</country>
<coordinates>
<latitude>44.8333</latitude>
<longitude>20.5000</longitude>
</coordinates>
<variants>
<variant>
<name>Belgrad</name>
<instances>2</instances>
</variant>
</variants>
<notes>
<note>Serbia.</note>
</notes>
</pubPlace>
<pubPlace id="place_0039">
<regName>Belle-Vue</regName>
<curName/>
<country>SZ</country>
<coordinates>
<latitude>46.267</latitude>
<longitude>6.15</longitude>
</coordinates>
<variants>
<variant>
<name>Belle-Vue</name>
<instances>1</instances>
</variant>
</variants>
<notes>
<note>tageo.</note>
</notes>
</pubPlace>
<pubPlace id="place_0040">
<regName>Bensheim</regName>
<curName/>
<country>GM</country>
<coordinates>
<latitude>49.6833</latitude>
<longitude>8.6333</longitude>
</coordinates>
<variants>
<variant>
<name>Bensheim</name>
<instances>1</instances>
</variant>
</variants>
<notes/>
</pubPlace>
<pubPlace id="place_0041">
<regName>Bercy</regName>
<curName/>
<country>FR</country>
<coordinates>
<latitude/>
<longitude/>
</coordinates>
<variants>
<variant>
<name>Bercy</name>
<instances>1</instances>
</variant>
</variants>
<notes/>
</pubPlace>
<pubPlace id="place_0042">
<regName>Bergedorf</regName>
<curName/>
<country>GM</country>
<coordinates>
<latitude>53.4833</latitude>
<longitude>10.2167</longitude>
</coordinates>
<variants>
<variant>
<name>Bergedorf</name>
<instances>13</instances>
</variant>
</variants>
<notes/>
</pubPlace>
<pubPlace id="place_0043">
<regName>Bergen &lt;Norwegen&gt;</regName>
<curName/>
<country>NO</country>
<coordinates>
<latitude>60.3833</latitude>
<longitude>5.3333</longitude>
</coordinates>
<variants>
<variant>
<name>Bergen</name>
<instances>1</instances>
</variant>
</variants>
<notes>
<note>or leave Norway out?.</note>
</notes>
</pubPlace>
<pubPlace id="place_0044">
<regName>Berlin</regName>
<curName/>
<country>GM</country>
<coordinates>
<latitude>52.5333</latitude>
<longitude>13.4167</longitude>
</coordinates>
<variants>
<variant>
<name>Berl</name>
<instances>34549</instances>
</variant>
<variant>
<name>Berlin</name>
<instances>44893</instances>
</variant>
<variant>
<name>Berli</name>
<instances>4029</instances>
</variant>
<variant>
<name>Perlin</name>
<instances>9240</instances>
</variant>
<variant>
<name>Belin</name>
<instances>20235</instances>
</variant>
</variants>
<notes/>
</pubPlace>
<pubPlace id="place_0045">
<regName>Berlin-Köpenick</regName>
<curName/>
<country>GM</country>
<coordinates>
<latitude>52.4500</latitude>
<longitude>13.5667</longitude>
</coordinates>
<variants>
<variant>
<name>Coepenick</name>
<instances>2</instances>
</variant>
<variant>
<name>Köpenick</name>
<instances>2</instances>
</variant>
</variants>
<notes/>
</pubPlace>
<pubPlace id="place_0046">
<regName>Berlin-Lichterfelde</regName>
<curName/>
<country>GM</country>
<coordinates>
<latitude>52.4333</latitude>
<longitude>13.3167</longitude>
</coordinates>
<variants>
<variant>
<name>Berlin-Lichterfelde</name>
<instances>61</instances>
</variant>
<variant>
<name>Lichterfelde</name>
<instances>61</instances>
</variant>
<variant>
<name>Gr. Lichterfelde</name>
<instances>40</instances>
</variant>
<variant>
<name>Gr.-Lichterfelde</name>
<instances>40</instances>
</variant>
<variant>
<name>Gross-Lichterfelde</name>
<instances>40</instances>
</variant>
</variants>
<notes/>
</pubPlace>
<pubPlace id="place_0047">
<regName>Berlin-Rixdorf</regName>
<curName/>
<country>GM</country>
<coordinates>
<latitude>52.5333</latitude>
<longitude>13.4167</longitude>
</coordinates>
<variants>
<variant>
<name>Berlin-Rixdorf</name>
<instances>3</instances>
</variant>
<variant>
<name>Rixdorf-Berlin</name>
<instances>1</instances>
</variant>
</variants>
<notes/>
</pubPlace>
<pubPlace id="place_0048">
<regName>Berlin-Schöneberg</regName>
<curName/>
<country>GM</country>
<coordinates>
<latitude>52.4833</latitude>
<longitude>13.3667</longitude>
</coordinates>
<variants>
<variant>
<name>Schöneberg</name>
<instances>4</instances>
</variant>
<variant>
<name>Schöneberg-Berlin</name>
<instances>4</instances>
</variant>
</variants>
<notes/>
</pubPlace>
<pubPlace id="place_0049">
<regName>Berlin-Zehlendorf</regName>
<curName/>
<country>GM</country>
<coordinates>
<latitude>52.4667</latitude>
<longitude>13.3333</longitude>
</coordinates>
<variants>
<variant>
<name>Zehlendorf</name>
<instances>1</instances>
</variant>
</variants>
<notes/>
</pubPlace>
<pubPlace id="place_0050">
<regName>Bern</regName>
<curName/>
<country>SZ</country>
<coordinates>
<latitude>46.9500</latitude>
<longitude>7.4333</longitude>
</coordinates>
<variants>
<variant>
<name>Bern</name>
<instances>124</instances>
</variant>
</variants>
<notes/>
</pubPlace>
<pubPlace id="place_0051">
<regName>Bernburg</regName>
<curName/>
<country>GM</country>
<coordinates>
<latitude>51.8000</latitude>
<longitude>11.7333</longitude>
</coordinates>
<variants>
<variant>
<name>Bernburg</name>
<instances>6</instances>
</variant>
</variants>
<notes/>
</pubPlace>
<pubPlace id="place_0052">
<regName>Berum</regName>
<curName/>
<country>GM</country>
<coordinates>
<latitude>53.6</latitude>
<longitude>7.3</longitude>
</coordinates>
<variants>
<variant>
<name>Berum</name>
<instances>14</instances>
</variant>
</variants>
<notes/>
</pubPlace>
<pubPlace id="place_0053">
<regName>Bethel bei Bielefeld</regName>
<curName/>
<country>GM</country>
<coordinates>
<latitude>52.033</latitude>
<longitude>8.533</longitude>
</coordinates>
<variants>
<variant>
<name>Bethel bei Bielefeld</name>
<instances>1</instances>
</variant>
</variants>
<notes/>
</pubPlace>
<pubPlace id="place_0054">
<regName>Bezau</regName>
<curName/>
<country>AU</country>
<coordinates>
<latitude>47.385</latitude>
<longitude>9.902</longitude>
</coordinates>
<variants>
<variant>
<name>Bezau</name>
<instances>3</instances>
</variant>
</variants>
<notes/>
</pubPlace>
<pubPlace id="place_0055">
<regName>Biberach &lt;Riss&gt;</regName>
<curName/>
<country>GM</country>
<coordinates>
<latitude>48.1</latitude>
<longitude>9.8</longitude>
</coordinates>
<variants>
<variant>
<name>Biberach</name>
<instances>1</instances>
</variant>
</variants>
<notes>
<note>Biberach an der Riss.</note>
</notes>
</pubPlace>
<pubPlace id="place_0056">
<regName>Biel &lt;Bern&gt;</regName>
<curName/>
<country>SZ</country>
<coordinates>
<latitude>47.1500</latitude>
<longitude>7.2667</longitude>
</coordinates>
<variants>
<variant>
<name>Biel</name>
<instances>66</instances>
</variant>
</variants>
<notes/>
</pubPlace>
<pubPlace id="place_0057">
<regName>Bielefeld</regName>
<curName/>
<country>GM</country>
<coordinates>
<latitude>52.0333</latitude>
<longitude>8.5333</longitude>
</coordinates>
<variants>
<variant>
<name>Bielefeld</name>
<instances>179</instances>
</variant>
</variants>
<notes/>
</pubPlace>
<pubPlace id="place_0058">
<regName>Bielitz</regName>
<curName>Bielsko-Biała</curName>
<country>PL</country>
<coordinates>
<latitude>49.8333</latitude>
<longitude>19.0000</longitude>
</coordinates>
<variants>
<variant>
<name>Bielitz</name>
<instances>4</instances>
</variant>
</variants>
<notes/>
</pubPlace>
<pubPlace id="place_0059">
<regName>Bingen &lt;Rhein&gt;</regName>
<curName/>
<country>GM</country>
<coordinates>
<latitude>49.9667</latitude>
<longitude>7.9000</longitude>
</coordinates>
<variants>
<variant>
<name>Bingen</name>
<instances>2</instances>
</variant>
</variants>
<notes>
<note>or leave Rhein out?.</note>
</notes>
</pubPlace>
<pubPlace id="place_0060">
<regName>Binningen</regName>
<curName/>
<country>SZ</country>
<coordinates>
<latitude>47.5333</latitude>
<longitude>7.5833</longitude>
</coordinates>
<variants>
<variant>
<name>Binningen</name>
<instances>3</instances>
</variant>
</variants>
<notes/>
</pubPlace>
<pubPlace id="place_0061">
<regName>Birkenfeld</regName>
<curName/>
<country>GM</country>
<coordinates>
<latitude/>
<longitude/>
</coordinates>
<variants>
<variant>
<name>Birkenfeld</name>
<instances>2</instances>
</variant>
</variants>
<notes/>
</pubPlace>
<pubPlace id="place_0062">
<regName>Bitterfeld</regName>
<curName/>
<country>GM</country>
<coordinates>
<latitude>51.6167</latitude>
<longitude>12.3167</longitude>
</coordinates>
<variants>
<variant>
<name>Bitterfeld</name>
<instances>1</instances>
</variant>
</variants>
<notes/>
</pubPlace>
<pubPlace id="place_0063">
<regName>Blankenburg</regName>
<curName/>
<country>GM</country>
<coordinates>
<latitude>51.8000</latitude>
<longitude>10.9667</longitude>
</coordinates>
<variants>
<variant>
<name>Blankenburg</name>
<instances>4</instances>
</variant>
</variants>
<notes/>
</pubPlace>
<pubPlace id="place_0064">
<regName>Blasewitz &lt;Dresden&gt;</regName>
<curName/>
<country>GM</country>
<coordinates>
<latitude>51.0500</latitude>
<longitude>13.7500</longitude>
</coordinates>
<variants>
<variant>
<name>Dresden-Blasewitz</name>
<instances>1</instances>
</variant>
</variants>
<notes>
<note>later Dresden-Blasewitz!.</note>
</notes>
</pubPlace>
<pubPlace id="place_0065">
<regName>Bochnia</regName>
<curName/>
<country>PL</country>
<coordinates>
<latitude>49.9833</latitude>
<longitude>20.4167</longitude>
</coordinates>
<variants>
<variant>
<name>Bochnia</name>
<instances>2</instances>
</variant>
</variants>
<notes/>
</pubPlace>
<pubPlace id="place_0066">
<regName>Bochum</regName>
<curName/>
<country>GM</country>
<coordinates>
<latitude>51.4667</latitude>
<longitude>7.1833</longitude>
</coordinates>
<variants>
<variant>
<name>Bochum</name>
<instances>28</instances>
</variant>
</variants>
<notes/>
</pubPlace>
<pubPlace id="place_0067">
<regName>Bockenheim &lt;Frankfurt, Main&gt;</regName>
<curName/>
<country>GM</country>
<coordinates>
<latitude>50.1000</latitude>
<longitude>8.6833</longitude>
</coordinates>
<variants>
<variant>
<name>Bockenheim</name>
<instances>1</instances>
</variant>
</variants>
<notes/>
</pubPlace>
<pubPlace id="place_0068">
<regName>Bologna</regName>
<curName/>
<country>IT</country>
<coordinates>
<latitude>44.5000</latitude>
<longitude>11.3333</longitude>
</coordinates>
<variants>
<variant>
<name>Bologna</name>
<instances>9</instances>
</variant>
</variants>
<notes/>
</pubPlace>
<pubPlace id="place_0069">
<regName>Bonn</regName>
<curName/>
<country>GM</country>
<coordinates>
<latitude>50.7333</latitude>
<longitude>7.1000</longitude>
</coordinates>
<variants>
<variant>
<name>Bonn</name>
<instances>2449</instances>
</variant>
<variant>
<name>Bonu</name>
<instances>1924</instances>
</variant>
</variants>
<notes/>
</pubPlace>
<pubPlace id="place_0070">
<regName>Bonndorf</regName>
<curName/>
<country>GM</country>
<coordinates>
<latitude>47.8167</latitude>
<longitude>8.3500</longitude>
</coordinates>
<variants>
<variant>
<name>Bonndorf</name>
<instances>3</instances>
</variant>
</variants>
<notes/>
</pubPlace>
<pubPlace id="place_0071">
<regName>Boppard</regName>
<curName/>
<country>GM</country>
<coordinates>
<latitude>50.2500</latitude>
<longitude>7.5833</longitude>
</coordinates>
<variants>
<variant>
<name>Boppard</name>
<instances>2</instances>
</variant>
</variants>
<notes/>
</pubPlace>
<pubPlace id="place_0072">
<regName>Borna &lt;Leipziger Land&gt;</regName>
<curName/>
<country>GM</country>
<coordinates>
<latitude>51.1333</latitude>
<longitude>12.5000</longitude>
</coordinates>
<variants>
<variant>
<name>Borna</name>
<instances>14</instances>
</variant>
</variants>
<notes>
<note>Borna &lt;Leipziger Land&gt;?.</note>
</notes>
</pubPlace>
<pubPlace id="place_0073">
<regName>Boston</regName>
<curName/>
<country>US</country>
<coordinates>
<latitude>42.358</latitude>
<longitude>-71.06</longitude>
</coordinates>
<variants>
<variant>
<name>Boston</name>
<instances>9</instances>
</variant>
</variants>
<notes/>
</pubPlace>
<pubPlace id="place_0074">
<regName>Bozen</regName>
<curName>Bolzano</curName>
<country>IT</country>
<coordinates>
<latitude>46.5167</latitude>
<longitude>11.3667</longitude>
</coordinates>
<variants>
<variant>
<name>Bozen</name>
<instances>10</instances>
</variant>
</variants>
<notes/>
</pubPlace>
<pubPlace id="place_0075">
<regName>Bradford</regName>
<curName/>
<country>UK</country>
<coordinates>
<latitude>53.784</latitude>
<longitude>-1.75</longitude>
</coordinates>
<variants>
<variant>
<name>Bradford</name>
<instances>1</instances>
</variant>
</variants>
<notes>
<note>West Yorkshire, presumably. 1 very odd entry!.</note>
</notes>
</pubPlace>
<pubPlace id="place_0076">
<regName>Brandenburg &lt;Havel&gt;</regName>
<curName/>
<country>GM</country>
<coordinates>
<latitude>52.4167</latitude>
<longitude>12.5667</longitude>
</coordinates>
<variants>
<variant>
<name>Brandenburg</name>
<instances>17</instances>
</variant>
<variant>
<name>Brandenburg a. H</name>
<instances>12</instances>
</variant>
</variants>
<notes/>
</pubPlace>
<pubPlace id="place_0077">
<regName>Braunsberg &lt;Ostpreussen&gt;</regName>
<curName>Braniewo</curName>
<country>PL</country>
<coordinates>
<latitude>54.4000</latitude>
<longitude>19.8333</longitude>
</coordinates>
<variants>
<variant>
<name>Braunsberg</name>
<instances>4</instances>
</variant>
</variants>
<notes>
<note>now Braniewo Poland.</note>
</notes>
</pubPlace>
<pubPlace id="place_0078">
<regName>Braunschweig</regName>
<curName/>
<country>GM</country>
<coordinates>
<latitude>52.2500</latitude>
<longitude>10.5000</longitude>
</coordinates>
<variants>
<variant>
<name>Brauns</name>
<instances>1222</instances>
</variant>
<variant>
<name>Braunsch</name>
<instances>1222</instances>
</variant>
<variant>
<name>Braunschw</name>
<instances>4194</instances>
</variant>
<variant>
<name>Braunschweig</name>
<instances>4879</instances>
</variant>
<variant>
<name>Brschw</name>
<instances>1222</instances>
</variant>
<variant>
<name>Braunschwein</name>
<instances>193</instances>
</variant>
<variant>
<name>Brannschweig</name>
<instances>2779</instances>
</variant>
<variant>
<name>Branschweig</name>
<instances>2779</instances>
</variant>
<variant>
<name>Braunschweìg</name>
<instances>2779</instances>
</variant>
</variants>
<notes/>
</pubPlace>
<pubPlace id="place_0079">
<regName>Bregenz</regName>
<curName/>
<country>AU</country>
<coordinates>
<latitude>47.5167</latitude>
<longitude>9.7667</longitude>
</coordinates>
<variants>
<variant>
<name>Bregenz</name>
<instances>2</instances>
</variant>
</variants>
<notes>
<note>Austria.</note>
</notes>
</pubPlace>
<pubPlace id="place_0080">
<regName>Bremen</regName>
<curName/>
<country>GM</country>
<coordinates>
<latitude>53.0833</latitude>
<longitude>8.8000</longitude>
</coordinates>
<variants>
<variant>
<name>Bremen</name>
<instances>4108</instances>
</variant>
<variant>
<name>Br</name>
<instances>2314</instances>
</variant>
</variants>
<notes/>
</pubPlace>
<pubPlace id="place_0081">
<regName>Bremerhaven</regName>
<curName/>
<country>GM</country>
<coordinates>
<latitude>53.5500</latitude>
<longitude>8.5833</longitude>
</coordinates>
<variants>
<variant>
<name>Bremerhafen</name>
<instances>8</instances>
</variant>
<variant>
<name>Bremerhaven</name>
<instances>8</instances>
</variant>
</variants>
<notes/>
</pubPlace>
<pubPlace id="place_0082">
<regName>Breslau</regName>
<curName>Wrocław</curName>
<country>PL</country>
<coordinates>
<latitude>51.1000</latitude>
<longitude>17.0000</longitude>
</coordinates>
<variants>
<variant>
<name>Bresl</name>
<instances>2235</instances>
</variant>
<variant>
<name>Breslan</name>
<instances>1368</instances>
</variant>
<variant>
<name>Breslau</name>
<instances>5711</instances>
</variant>
<variant>
<name>Bréslau</name>
<instances>867</instances>
</variant>
<variant>
<name>reslau</name>
<instances>2796</instances>
</variant>
</variants>
<notes/>
</pubPlace>
<pubPlace id="place_0083">
<regName>Brieg</regName>
<curName>Brzeg</curName>
<country>PL</country>
<coordinates>
<latitude>50.3500</latitude>
<longitude>17.4667</longitude>
</coordinates>
<variants>
<variant>
<name>Brieg</name>
<instances>21</instances>
</variant>
</variants>
<notes/>
</pubPlace>
<pubPlace id="place_0084">
<regName>Brixen</regName>
<curName>Bressanone</curName>
<country>IT</country>
<coordinates>
<latitude>46.7167</latitude>
<longitude>11.6667</longitude>
</coordinates>
<variants>
<variant>
<name>Brixen</name>
<instances>4</instances>
</variant>
</variants>
<notes>
<note>Bressanone.</note>
</notes>
</pubPlace>
<pubPlace id="place_0085">
<regName>Bromberg</regName>
<curName>Bydgoszcz</curName>
<country>PL</country>
<coordinates>
<latitude>53.1500</latitude>
<longitude>18.0000</longitude>
</coordinates>
<variants>
<variant>
<name>Bromberg</name>
<instances>28</instances>
</variant>
</variants>
<notes>
<note>now Bydgoszcz, Poland.</note>
</notes>
</pubPlace>
<pubPlace id="place_0086">
<regName>Bruchsal</regName>
<curName/>
<country>GM</country>
<coordinates>
<latitude>49.1333</latitude>
<longitude>8.6000</longitude>
</coordinates>
<variants>
<variant>
<name>Bruchsal</name>
<instances>1</instances>
</variant>
</variants>
<notes/>
</pubPlace>
<pubPlace id="place_0087">
<regName>Brück bei Potsdam</regName>
<curName/>
<country>GM</country>
<coordinates>
<latitude>52.2000</latitude>
<longitude>12.7667</longitude>
</coordinates>
<variants>
<variant>
<name>Brück b/Potsdam</name>
<instances>1</instances>
</variant>
</variants>
<notes/>
</pubPlace>
<pubPlace id="place_0088">
<regName>Brünn</regName>
<curName>Brno</curName>
<country>EZ</country>
<coordinates>
<latitude>49.2167</latitude>
<longitude>16.6667</longitude>
</coordinates>
<variants>
<variant>
<name>Brünn</name>
<instances>17</instances>
</variant>
</variants>
<notes/>
</pubPlace>
<pubPlace id="place_0089">
<regName>Brüssel</regName>
<curName/>
<country>BE</country>
<coordinates>
<latitude>50.8333</latitude>
<longitude>4.3333</longitude>
</coordinates>
<variants>
<variant>
<name>Brüssel</name>
<instances>920</instances>
</variant>
<variant>
<name>Bruxelles</name>
<instances>644</instances>
</variant>
</variants>
<notes>
<note>GKD-Ansetzung: Bruxelles.</note>
</notes>
</pubPlace>
<pubPlace id="place_0090">
<regName>Bucarest</regName>
<curName>Bucureşti</curName>
<country>RO</country>
<coordinates>
<latitude>44.4333</latitude>
<longitude>26.1000</longitude>
</coordinates>
<variants>
<variant>
<name>Bucarest</name>
<instances>44</instances>
</variant>
<variant>
<name>Buckarest</name>
<instances>44</instances>
</variant>
<variant>
<name>Bukarest</name>
<instances>48</instances>
</variant>
</variants>
<notes/>
</pubPlace>
<pubPlace id="place_0091">
<regName>Buchholz &lt;Erzgebirge&gt;</regName>
<curName/>
<country>GM</country>
<coordinates>
<latitude>50.5667</latitude>
<longitude>13.0000</longitude>
</coordinates>
<variants>
<variant>
<name>Buchholz</name>
<instances>1</instances>
</variant>
</variants>
<notes/>
</pubPlace>
<pubPlace id="place_0092">
<regName>Budapest</regName>
<curName/>
<country>HU</country>
<coordinates>
<latitude>47.5000</latitude>
<longitude>19.0500</longitude>
</coordinates>
<variants>
<variant>
<name>Budapest</name>
<instances>NaN</instances>
</variant>
<variant>
<name>Budápest</name>
<instances>NaN</instances>
</variant>
<variant>
<name>Budaqest</name>
<instances>NaN</instances>
</variant>
</variants>
<notes/>
</pubPlace>
<pubPlace id="place_0093">
<regName>Budweis</regName>
<curName>Česke Budějovice</curName>
<country>EZ</country>
<coordinates>
<latitude>48.9667</latitude>
<longitude>14.4833</longitude>
</coordinates>
<variants>
<variant>
<name>Budweis</name>
<instances>4</instances>
</variant>
</variants>
<notes>
<note>Budweis until 1918: then Ceske Budejovice.</note>
<note>now Ceské Budejovice.</note>
</notes>
</pubPlace>
<pubPlace id="place_0094">
<regName>Bunzlau</regName>
<curName>Bolesławiec</curName>
<country>PL</country>
<coordinates>
<latitude>51.2667</latitude>
<longitude>15.5667</longitude>
</coordinates>
<variants>
<variant>
<name>Bunzlau</name>
<instances>106</instances>
</variant>
</variants>
<notes/>
</pubPlace>
<pubPlace id="place_0095">
<regName>Burg &lt;Magdeburg&gt;</regName>
<curName/>
<country>GM</country>
<coordinates>
<latitude>52.2667</latitude>
<longitude>11.8500</longitude>
</coordinates>
<variants>
<variant>
<name>Burg</name>
<instances>1</instances>
</variant>
</variants>
<notes>
<note>Hopfer.</note>
</notes>
</pubPlace>
<pubPlace id="place_0096">
<regName>Burgdorf</regName>
<curName/>
<country>GM</country>
<coordinates>
<latitude>52.4500</latitude>
<longitude>10.0167</longitude>
</coordinates>
<variants>
<variant>
<name>Burgdorf</name>
<instances>2</instances>
</variant>
</variants>
<notes>
<note>Burgdorf &lt;Bern&gt;? Switzerland? SEE CK NOTES.</note>
<note>seems likely to be near Celle (see entry).</note>
</notes>
</pubPlace>
<pubPlace id="place_0097">
<regName>Burgstädt</regName>
<curName/>
<country>GM</country>
<coordinates>
<latitude>50.9167</latitude>
<longitude>12.8167</longitude>
</coordinates>
<variants>
<variant>
<name>Burgstädt</name>
<instances>51</instances>
</variant>
</variants>
<notes/>
</pubPlace>
<pubPlace id="place_0098">
<regName>Buslar</regName>
<curName>Buslary</curName>
<country>PL</country>
<coordinates>
<latitude>53.8</latitude>
<longitude>16.067</longitude>
</coordinates>
<variants>
<variant>
<name>Buslar</name>
<instances>7</instances>
</variant>
</variants>
<notes/>
</pubPlace>
<pubPlace id="place_0099">
<regName>Butzbach</regName>
<curName/>
<country>GM</country>
<coordinates>
<latitude>50.4333</latitude>
<longitude>8.6667</longitude>
</coordinates>
<variants>
<variant>
<name>Butzbach</name>
<instances>1</instances>
</variant>
</variants>
<notes/>
</pubPlace>
<pubPlace id="place_0100">
<regName>Bärenthal</regName>
<curName/>
<country>GM</country>
<coordinates>
<latitude>47.9833</latitude>
<longitude>8.8167</longitude>
</coordinates>
<variants>
<variant>
<name>Bärenthal</name>
<instances>1</instances>
</variant>
</variants>
<notes>
<note>in Alsace, France.</note>
</notes>
</pubPlace>
<pubPlace id="place_0101">
<regName>Böhmisch-Leipa</regName>
<curName>Česka Lípa</curName>
<country>EZ</country>
<coordinates>
<latitude>50.7167</latitude>
<longitude>14.5833</longitude>
</coordinates>
<variants>
<variant>
<name>Böhm. Leipa</name>
<instances>2</instances>
</variant>
<variant>
<name>Böhm.-Leipa</name>
<instances>2</instances>
</variant>
</variants>
<notes>
<note>now Ceska Lipa, CZ.</note>
</notes>
</pubPlace>
<pubPlace id="place_0102">
<regName>Bühl</regName>
<curName/>
<country>GM</country>
<coordinates>
<latitude>48.7000</latitude>
<longitude>8.1500</longitude>
</coordinates>
<variants>
<variant>
<name>Bühl</name>
<instances>6</instances>
</variant>
</variants>
<notes>
<note>(Freiburg/Br, Herder) / Konkordia (Bruni).</note>
</notes>
</pubPlace>
<pubPlace id="place_0103">
<regName>Büren &lt;Paderborn&gt;</regName>
<curName/>
<country>GM</country>
<coordinates>
<latitude>51.5500</latitude>
<longitude>8.5500</longitude>
</coordinates>
<variants>
<variant>
<name>Büren</name>
<instances>2</instances>
</variant>
</variants>
<notes>
<note>Hagen (Wennekamp).</note>
</notes>
</pubPlace>
<pubPlace id="place_0104">
<regName>Calcutta</regName>
<curName/>
<country>IN</country>
<coordinates>
<latitude>22.5000</latitude>
<longitude>88.3333</longitude>
</coordinates>
<variants>
<variant>
<name>Calcutta</name>
<instances>1</instances>
</variant>
</variants>
<notes/>
</pubPlace>
<pubPlace id="place_0105">
<regName>Cammin &lt;Pommern&gt;</regName>
<curName>Kamień Pomorski</curName>
<country>PL</country>
<coordinates>
<latitude>53.9667</latitude>
<longitude>14.7667</longitude>
</coordinates>
<variants>
<variant>
<name>Cammin</name>
<instances>2</instances>
</variant>
</variants>
<notes>
<note>GKD-Ansetzung: Cammin.</note>
</notes>
</pubPlace>
<pubPlace id="place_0106">
<regName>Cannelton</regName>
<curName/>
<country>US</country>
<coordinates>
<latitude/>
<longitude/>
</coordinates>
<variants>
<variant>
<name>Cannelton</name>
<instances>1</instances>
</variant>
</variants>
<notes>
<note>several possibilities in Getty.</note>
</notes>
</pubPlace>
<pubPlace id="place_0107">
<regName>Carlsfeld</regName>
<curName/>
<country>GM</country>
<coordinates>
<latitude>50.4333</latitude>
<longitude>12.5833</longitude>
</coordinates>
<variants>
<variant>
<name>Carlsfeld</name>
<instances>3</instances>
</variant>
</variants>
<notes/>
</pubPlace>
<pubPlace id="place_0108">
<regName>Celle</regName>
<curName/>
<country>GM</country>
<coordinates>
<latitude>52.6167</latitude>
<longitude>10.0833</longitude>
</coordinates>
<variants>
<variant>
<name>Celle</name>
<instances>14</instances>
</variant>
</variants>
<notes/>
</pubPlace>
<pubPlace id="place_0109">
<regName>Charlottenburg &lt;Berlin&gt;</regName>
<curName/>
<country>GM</country>
<coordinates>
<latitude>52.5167</latitude>
<longitude>13.2667</longitude>
</coordinates>
<variants>
<variant>
<name>Berlin-Charlottenburg</name>
<instances>135</instances>
</variant>
<variant>
<name>Charlottenburg</name>
<instances>203</instances>
</variant>
</variants>
<notes/>
</pubPlace>
<pubPlace id="place_0110">
<regName>Chemnitz</regName>
<curName/>
<country>GM</country>
<coordinates>
<latitude>50.8333</latitude>
<longitude>12.9167</longitude>
</coordinates>
<variants>
<variant>
<name>Chemnitz</name>
<instances>363</instances>
</variant>
<variant>
<name>Altchemnitz</name>
<instances>5</instances>
</variant>
</variants>
<notes/>
</pubPlace>
<pubPlace id="place_0111">
<regName>Chicago</regName>
<curName/>
<country>US</country>
<coordinates>
<latitude>41.85</latitude>
<longitude>-87.65</longitude>
</coordinates>
<variants>
<variant>
<name>Chicago</name>
<instances>1</instances>
</variant>
</variants>
<notes/>
</pubPlace>
<pubPlace id="place_0112">
<regName>Christiania</regName>
<curName>Oslo</curName>
<country>NO</country>
<coordinates>
<latitude>59.9333</latitude>
<longitude>10.7500</longitude>
</coordinates>
<variants>
<variant>
<name>Christiana</name>
<instances>5</instances>
</variant>
<variant>
<name>Christiania</name>
<instances>181</instances>
</variant>
</variants>
<notes>
<note>cd. Be Kristiania also, but this seems OK.</note>
</notes>
</pubPlace>
<pubPlace id="place_0113">
<regName>Chur</regName>
<curName/>
<country>SZ</country>
<coordinates>
<latitude>46.8667</latitude>
<longitude>9.5333</longitude>
</coordinates>
<variants>
<variant>
<name>Chur</name>
<instances>5</instances>
</variant>
</variants>
<notes/>
</pubPlace>
<pubPlace id="place_0114">
<regName>Cincinnati &lt;Ohio&gt;</regName>
<curName/>
<country>US</country>
<coordinates>
<latitude>39.1500</latitude>
<longitude>-84.4500</longitude>
</coordinates>
<variants>
<variant>
<name>Cincinatti</name>
<instances>4</instances>
</variant>
<variant>
<name>Cincinnati</name>
<instances>4</instances>
</variant>
</variants>
<notes/>
</pubPlace>
<pubPlace id="place_0115">
<regName>Clausthal</regName>
<curName/>
<country>GM</country>
<coordinates>
<latitude>51.8000</latitude>
<longitude>10.3333</longitude>
</coordinates>
<variants>
<variant>
<name>Clausthal</name>
<instances>6</instances>
</variant>
<variant>
<name>Klausthal</name>
<instances>5</instances>
</variant>
</variants>
<notes>
<note>Clausthal-Zellerfeld.</note>
</notes>
</pubPlace>
<pubPlace id="place_0116">
<regName>Cleveland</regName>
<curName/>
<country>US</country>
<coordinates>
<latitude/>
<longitude/>
</coordinates>
<variants>
<variant>
<name>Cleveland</name>
<instances>4</instances>
</variant>
</variants>
<notes>
<note>several in Getty - which one?.</note>
<note>several in Getty which one?.</note>
</notes>
</pubPlace>
<pubPlace id="place_0117">
<regName>Coburg</regName>
<curName/>
<country>GM</country>
<coordinates>
<latitude>50.2500</latitude>
<longitude>10.9667</longitude>
</coordinates>
<variants>
<variant>
<name>Coburg</name>
<instances>218</instances>
</variant>
<variant>
<name>Koburg</name>
<instances>383</instances>
</variant>
</variants>
<notes/>
</pubPlace>
<pubPlace id="place_0118">
<regName>Coesfeld</regName>
<curName/>
<country>GM</country>
<coordinates>
<latitude>51.9500</latitude>
<longitude>7.1667</longitude>
</coordinates>
<variants>
<variant>
<name>Coesfeld</name>
<instances>1</instances>
</variant>
</variants>
<notes/>
</pubPlace>
<pubPlace id="place_0119">
<regName>Colmar</regName>
<curName/>
<country>FR</country>
<coordinates>
<latitude>48.0833</latitude>
<longitude>7.3500</longitude>
</coordinates>
<variants>
<variant>
<name>Colmar</name>
<instances>40</instances>
</variant>
<variant>
<name>Kolmar</name>
<instances>40</instances>
</variant>
<variant>
<name>Colmar i./E</name>
<instances>13</instances>
</variant>
<variant>
<name>Colmar i/E</name>
<instances>13</instances>
</variant>
</variants>
<notes>
<note>same as earlier Colmar? I would say: right..</note>
</notes>
</pubPlace>
<pubPlace id="place_0120">
<regName>Cosel</regName>
<curName/>
<country>GM</country>
<coordinates>
<latitude>51.383</latitude>
<longitude>13.933</longitude>
</coordinates>
<variants>
<variant>
<name>Cosel</name>
<instances>1</instances>
</variant>
</variants>
<notes>
<note>publisher Silbermann.</note>
</notes>
</pubPlace>
<pubPlace id="place_0121">
<regName>Cottbus</regName>
<curName/>
<country>GM</country>
<coordinates>
<latitude>51.7167</latitude>
<longitude>14.3500</longitude>
</coordinates>
<variants>
<variant>
<name>Cottbus</name>
<instances>14</instances>
</variant>
<variant>
<name>Cottbuss</name>
<instances>5</instances>
</variant>
</variants>
<notes/>
</pubPlace>
<pubPlace id="place_0122">
<regName>Crimmitzschau</regName>
<curName/>
<country>GM</country>
<coordinates>
<latitude>50.8167</latitude>
<longitude>12.3833</longitude>
</coordinates>
<variants>
<variant>
<name>Crimmitzschau</name>
<instances>1</instances>
</variant>
</variants>
<notes/>
</pubPlace>
<pubPlace id="place_0123">
<regName>Crossen &lt;Oder&gt;</regName>
<curName>Krosno Odrzańskie</curName>
<country>PL</country>
<coordinates>
<latitude>52.0500</latitude>
<longitude>15.0667</longitude>
</coordinates>
<variants>
<variant>
<name>Crossen</name>
<instances>6</instances>
</variant>
<variant>
<name>Crossen a/O</name>
<instances>6</instances>
</variant>
</variants>
<notes>
<note>Krosno Odrzańskie.</note>
</notes>
</pubPlace>
<pubPlace id="place_0124">
<regName>Czarnków</regName>
<curName/>
<country>PL</country>
<coordinates>
<latitude>52.8833</latitude>
<longitude>16.5333</longitude>
</coordinates>
<variants>
<variant>
<name>Czarnikau</name>
<instances>2</instances>
</variant>
</variants>
<notes/>
</pubPlace>
<pubPlace id="place_0125">
<regName>Czernowitz</regName>
<curName>Chernivtsi</curName>
<country>UP</country>
<coordinates>
<latitude>48.3000</latitude>
<longitude>25.9333</longitude>
</coordinates>
<variants>
<variant>
<name>Czernowitz</name>
<instances>16</instances>
</variant>
</variants>
<notes/>
</pubPlace>
<pubPlace id="place_0126">
<regName>Daaden</regName>
<curName/>
<country>GM</country>
<coordinates>
<latitude>50.7333</latitude>
<longitude>7.9667</longitude>
</coordinates>
<variants>
<variant>
<name>Daaden</name>
<instances>1</instances>
</variant>
</variants>
<notes/>
</pubPlace>
<pubPlace id="place_0127">
<regName>Danzig</regName>
<curName>Gdańsk</curName>
<country>PL</country>
<coordinates>
<latitude>54.3667</latitude>
<longitude>18.6833</longitude>
</coordinates>
<variants>
<variant>
<name>Danzig</name>
<instances>226</instances>
</variant>
</variants>
<notes/>
</pubPlace>
<pubPlace id="place_0128">
<regName>Darmstadt</regName>
<curName/>
<country>GM</country>
<coordinates>
<latitude>49.8667</latitude>
<longitude>8.6500</longitude>
</coordinates>
<variants>
<variant>
<name>Darmstadt</name>
<instances>348</instances>
</variant>
</variants>
<notes/>
</pubPlace>
<pubPlace id="place_0129">
<regName>Davos</regName>
<curName/>
<country>SZ</country>
<coordinates>
<latitude>46.8000</latitude>
<longitude>9.8333</longitude>
</coordinates>
<variants>
<variant>
<name>Davos</name>
<instances>14</instances>
</variant>
</variants>
<notes/>
</pubPlace>
<pubPlace id="place_0130">
<regName>Debreczin</regName>
<curName>Debrecen</curName>
<country>HU</country>
<coordinates>
<latitude>47.5000</latitude>
<longitude>21.6167</longitude>
</coordinates>
<variants>
<variant>
<name>Debreczin</name>
<instances>8</instances>
</variant>
<variant>
<name>Debreszin</name>
<instances>1</instances>
</variant>
</variants>
<notes/>
</pubPlace>
<pubPlace id="place_0131">
<regName>Delitzsch</regName>
<curName/>
<country>GM</country>
<coordinates>
<latitude>51.5333</latitude>
<longitude>12.3333</longitude>
</coordinates>
<variants>
<variant>
<name>Delitzsch</name>
<instances>297</instances>
</variant>
</variants>
<notes/>
</pubPlace>
<pubPlace id="place_0132">
<regName>Demmin</regName>
<curName/>
<country>GM</country>
<coordinates>
<latitude>53.9167</latitude>
<longitude>13.0500</longitude>
</coordinates>
<variants>
<variant>
<name>Demmin</name>
<instances>40</instances>
</variant>
</variants>
<notes/>
</pubPlace>
<pubPlace id="place_0133">
<regName>Dessau</regName>
<curName/>
<country>GM</country>
<coordinates>
<latitude>51.8500</latitude>
<longitude>12.2500</longitude>
</coordinates>
<variants>
<variant>
<name>Dessau</name>
<instances>204</instances>
</variant>
</variants>
<notes/>
</pubPlace>
<pubPlace id="place_0134">
<regName>Detmold</regName>
<curName/>
<country>GM</country>
<coordinates>
<latitude>51.9167</latitude>
<longitude>8.8667</longitude>
</coordinates>
<variants>
<variant>
<name>Detmold</name>
<instances>24</instances>
</variant>
</variants>
<notes/>
</pubPlace>
<pubPlace id="place_0135">
<regName>Deutsch Krone</regName>
<curName>Wałcz</curName>
<country>PL</country>
<coordinates>
<latitude>53.2833</latitude>
<longitude>16.4833</longitude>
</coordinates>
<variants>
<variant>
<name>Deutsch-Krone</name>
<instances>1</instances>
</variant>
</variants>
<notes>
<note>Wałcz.</note>
</notes>
</pubPlace>
<pubPlace id="place_0136">
<regName>Diedenhofen</regName>
<curName>Thionville</curName>
<country>FR</country>
<coordinates>
<latitude>49.3667</latitude>
<longitude>6.1833</longitude>
</coordinates>
<variants>
<variant>
<name>Diedenhofen</name>
<instances>26</instances>
</variant>
<variant>
<name>Diedenhoven</name>
<instances>11</instances>
</variant>
<variant>
<name>Dietenhofen</name>
<instances>24</instances>
</variant>
</variants>
<notes>
<note>Thionville (see GR).</note>
</notes>
</pubPlace>
<pubPlace id="place_0137">
<regName>Dillenburg</regName>
<curName/>
<country>GM</country>
<coordinates>
<latitude>50.7333</latitude>
<longitude>8.2667</longitude>
</coordinates>
<variants>
<variant>
<name>Dillenburg</name>
<instances>3</instances>
</variant>
</variants>
<notes/>
</pubPlace>
<pubPlace id="place_0138">
<regName>Dillingen &lt;Donau&gt;</regName>
<curName/>
<country>GM</country>
<coordinates>
<latitude>48.5500</latitude>
<longitude>10.5000</longitude>
</coordinates>
<variants>
<variant>
<name>Dillingen</name>
<instances>3</instances>
</variant>
</variants>
<notes>
<note>GKD-Ansetzung: Dillingen &lt;Donau&gt;.</note>
</notes>
</pubPlace>
<pubPlace id="place_0139">
<regName>Dinslaken</regName>
<curName/>
<country>GM</country>
<coordinates>
<latitude>51.5667</latitude>
<longitude>6.7167</longitude>
</coordinates>
<variants>
<variant>
<name>Dinslaken</name>
<instances>1</instances>
</variant>
</variants>
<notes>
<note>self publisher.</note>
</notes>
</pubPlace>
<pubPlace id="place_0140">
<regName>Donaueschingen</regName>
<curName/>
<country>GM</country>
<coordinates>
<latitude>47.9667</latitude>
<longitude>8.5000</longitude>
</coordinates>
<variants>
<variant>
<name>Donaueschingen</name>
<instances>7</instances>
</variant>
</variants>
<notes/>
</pubPlace>
<pubPlace id="place_0141">
<regName>Donauwörth</regName>
<curName/>
<country>GM</country>
<coordinates>
<latitude>48.7333</latitude>
<longitude>10.8000</longitude>
</coordinates>
<variants>
<variant>
<name>Donauwörth</name>
<instances>12</instances>
</variant>
</variants>
<notes/>
</pubPlace>
<pubPlace id="place_0142">
<regName>Dordrecht</regName>
<curName/>
<country>NL</country>
<coordinates>
<latitude>51.8000</latitude>
<longitude>4.6667</longitude>
</coordinates>
<variants>
<variant>
<name>Dordrecht</name>
<instances>1</instances>
</variant>
</variants>
<notes/>
</pubPlace>
<pubPlace id="place_0143">
<regName>Dorpat</regName>
<curName>Tartu</curName>
<country>EN</country>
<coordinates>
<latitude>58.3500</latitude>
<longitude>26.7333</longitude>
</coordinates>
<variants>
<variant>
<name>Dorpat</name>
<instances>22</instances>
</variant>
</variants>
<notes>
<note>GKD-Ansetzung: Dorpat -1893; Jur'ev 1893-1918; Tartu 1918-.</note>
</notes>
</pubPlace>
<pubPlace id="place_0144">
<regName>Dortmund</regName>
<curName/>
<country>GM</country>
<coordinates>
<latitude>51.5167</latitude>
<longitude>7.4500</longitude>
</coordinates>
<variants>
<variant>
<name>Dortmund</name>
<instances>38</instances>
</variant>
</variants>
<notes/>
</pubPlace>
<pubPlace id="place_0145">
<regName>Dramburg</regName>
<curName>Drawsko Pomorskie</curName>
<country>PL</country>
<coordinates>
<latitude>53.5333</latitude>
<longitude>15.8000</longitude>
</coordinates>
<variants>
<variant>
<name>Dramburg</name>
<instances>1</instances>
</variant>
</variants>
<notes/>
</pubPlace>
<pubPlace id="place_0146">
<regName>Drebkau</regName>
<curName/>
<country>GM</country>
<coordinates>
<latitude>51.6500</latitude>
<longitude>14.2167</longitude>
</coordinates>
<variants>
<variant>
<name>Drebkau</name>
<instances>38</instances>
</variant>
</variants>
<notes/>
</pubPlace>
<pubPlace id="place_0147">
<regName>Dresden</regName>
<curName/>
<country>GM</country>
<coordinates>
<latitude>51.0500</latitude>
<longitude>13.7500</longitude>
</coordinates>
<variants>
<variant>
<name>Dresd</name>
<instances>5066</instances>
</variant>
<variant>
<name>Dresden</name>
<instances>NaN</instances>
</variant>
<variant>
<name>Drsd</name>
<instances>1599</instances>
</variant>
<variant>
<name>Dres-</name>
<instances>NaN</instances>
</variant>
<variant>
<name>Dresdon</name>
<instances>1004</instances>
</variant>
</variants>
<notes/>
</pubPlace>
<pubPlace id="place_0148">
<regName>Dresden-Gruna</regName>
<curName/>
<country>GM</country>
<coordinates>
<latitude>51.0500</latitude>
<longitude>13.7500</longitude>
</coordinates>
<variants>
<variant>
<name>Gruna-Dresden</name>
<instances>4</instances>
</variant>
</variants>
<notes>
<note>dates from the city, it's east.</note>
</notes>
</pubPlace>
<pubPlace id="place_0149">
<regName>Dresden-Neustadt</regName>
<curName/>
<country>GM</country>
<coordinates>
<latitude>51.0500</latitude>
<longitude>13.7500</longitude>
</coordinates>
<variants>
<variant>
<name>Dresden-N</name>
<instances>5</instances>
</variant>
</variants>
<notes>
<note>co-ordinates from city.</note>
</notes>
</pubPlace>
<pubPlace id="place_0150">
<regName>Dresden-Pieschen</regName>
<curName/>
<country>GM</country>
<coordinates>
<latitude>51.0500</latitude>
<longitude>13.7500</longitude>
</coordinates>
<variants>
<variant>
<name>Dresden-Pieschen</name>
<instances>5</instances>
</variant>
</variants>
<notes>
<note>dates from city, it's northwest.</note>
</notes>
</pubPlace>
<pubPlace id="place_0151">
<regName>Duderstedt</regName>
<curName/>
<country>GM</country>
<coordinates>
<latitude>51.5333</latitude>
<longitude>10.2500</longitude>
</coordinates>
<variants>
<variant>
<name>Duderstedt</name>
<instances>1</instances>
</variant>
</variants>
<notes/>
</pubPlace>
<pubPlace id="place_0152">
<regName>Duisburg</regName>
<curName/>
<country>GM</country>
<coordinates>
<latitude>51.4333</latitude>
<longitude>6.7500</longitude>
</coordinates>
<variants>
<variant>
<name>Duisburg</name>
<instances>10</instances>
</variant>
</variants>
<notes/>
</pubPlace>
<pubPlace id="place_0153">
<regName>Döbeln</regName>
<curName/>
<country>GM</country>
<coordinates>
<latitude>51.1167</latitude>
<longitude>13.1167</longitude>
</coordinates>
<variants>
<variant>
<name>Döbeln</name>
<instances>8</instances>
</variant>
</variants>
<notes/>
</pubPlace>
<pubPlace id="place_0154">
<regName>Dölzig</regName>
<curName/>
<country>GM</country>
<coordinates>
<latitude/>
<longitude/>
</coordinates>
<variants>
<variant>
<name>Dölzig</name>
<instances>1</instances>
</variant>
</variants>
<notes>
<note>Sachsen or Thüringen?.</note>
</notes>
</pubPlace>
<pubPlace id="place_0155">
<regName>Dülmen</regName>
<curName/>
<country>GM</country>
<coordinates>
<latitude>51.8167</latitude>
<longitude>7.2833</longitude>
</coordinates>
<variants>
<variant>
<name>Dülmen</name>
<instances>5</instances>
</variant>
</variants>
<notes/>
</pubPlace>
<pubPlace id="place_0156">
<regName>Düren</regName>
<curName/>
<country>GM</country>
<coordinates>
<latitude>50.8000</latitude>
<longitude>6.5000</longitude>
</coordinates>
<variants>
<variant>
<name>Düren</name>
<instances>2</instances>
</variant>
</variants>
<notes>
<note>Solinus (Necke), Gislason (Necke).</note>
</notes>
</pubPlace>
<pubPlace id="place_0157">
<regName>Düsseldorf</regName>
<curName/>
<country>GM</country>
<coordinates>
<latitude>51.2167</latitude>
<longitude>6.7833</longitude>
</coordinates>
<variants>
<variant>
<name>Düsseldorf</name>
<instances>732</instances>
</variant>
<variant>
<name>Düsseldorff</name>
<instances>15</instances>
</variant>
</variants>
<notes/>
</pubPlace>
<pubPlace id="place_0158">
<regName>Ebersbach &lt;Sachsen&gt;</regName>
<curName/>
<country>GM</country>
<coordinates>
<latitude>51.0167</latitude>
<longitude>14.5833</longitude>
</coordinates>
<variants>
<variant>
<name>Ebersbach i/S</name>
<instances>2</instances>
</variant>
<variant>
<name>Ebersbach i/S.</name>
<instances>2</instances>
</variant>
</variants>
<notes/>
</pubPlace>
<pubPlace id="place_0159">
<regName>Eberswalde</regName>
<curName/>
<country>GM</country>
<coordinates>
<latitude>52.8333</latitude>
<longitude>13.8333</longitude>
</coordinates>
<variants>
<variant>
<name>Eberswalde</name>
<instances>5</instances>
</variant>
</variants>
<notes/>
</pubPlace>
<pubPlace id="place_0160">
<regName>Eckartsberga</regName>
<curName/>
<country>GM</country>
<coordinates>
<latitude>51.1167</latitude>
<longitude>11.5667</longitude>
</coordinates>
<variants>
<variant>
<name>Eckartsberga</name>
<instances>1</instances>
</variant>
</variants>
<notes>
<note>same co-ordinates as Neustedt, bei Eckartsberga (1 entry in 1850).</note>
</notes>
</pubPlace>
<pubPlace id="place_0161">
<regName>Eckernförde</regName>
<curName/>
<country>GM</country>
<coordinates>
<latitude>54.4667</latitude>
<longitude>9.8333</longitude>
</coordinates>
<variants>
<variant>
<name>Eckernförde</name>
<instances>2</instances>
</variant>
</variants>
<notes/>
</pubPlace>
<pubPlace id="place_0162">
<regName>Edinburgh</regName>
<curName/>
<country>GM</country>
<coordinates>
<latitude>54.7833</latitude>
<longitude>9.4333</longitude>
</coordinates>
<variants>
<variant>
<name>Edinburg</name>
<instances>1</instances>
</variant>
</variants>
<notes/>
</pubPlace>
<pubPlace id="place_0163">
<regName>Eger</regName>
<curName>Cheb</curName>
<country>EZ</country>
<coordinates>
<latitude>50.1333</latitude>
<longitude>12.4667</longitude>
</coordinates>
<variants>
<variant>
<name>Eger</name>
<instances>2</instances>
</variant>
</variants>
<notes/>
</pubPlace>
<pubPlace id="place_0164">
<regName>Eggenfelden</regName>
<curName/>
<country>GM</country>
<coordinates>
<latitude>48.4000</latitude>
<longitude>12.7667</longitude>
</coordinates>
<variants>
<variant>
<name>Eggenfelden</name>
<instances>2</instances>
</variant>
</variants>
<notes/>
</pubPlace>
<pubPlace id="place_0165">
<regName>Eichstätt</regName>
<curName/>
<country>GM</country>
<coordinates>
<latitude>48.9</latitude>
<longitude>11.2167</longitude>
</coordinates>
<variants>
<variant>
<name>Eichstädt</name>
<instances>39</instances>
</variant>
<variant>
<name>Eichstätt</name>
<instances>39</instances>
</variant>
</variants>
<notes/>
</pubPlace>
<pubPlace id="place_0166">
<regName>Eimbeck</regName>
<curName/>
<country>GM</country>
<coordinates>
<latitude>51.8167</latitude>
<longitude>9.8833</longitude>
</coordinates>
<variants>
<variant>
<name>Eimbeck</name>
<instances>1</instances>
</variant>
</variants>
<notes>
<note>investigate, cd. Be Einbeck.</note>
</notes>
</pubPlace>
<pubPlace id="place_0167">
<regName>Einsiedeln</regName>
<curName/>
<country>SZ</country>
<coordinates>
<latitude>47.1167</latitude>
<longitude>8.75</longitude>
</coordinates>
<variants>
<variant>
<name>Einsiedeln</name>
<instances>47</instances>
</variant>
</variants>
<notes>
<note>pretty sure this is in Switzerland.</note>
</notes>
</pubPlace>
<pubPlace id="place_0168">
<regName>Eisenach</regName>
<curName/>
<country>GM</country>
<coordinates>
<latitude>50.9833</latitude>
<longitude>10.3167</longitude>
</coordinates>
<variants>
<variant>
<name>Eisenach</name>
<instances>11</instances>
</variant>
</variants>
<notes/>
</pubPlace>
<pubPlace id="place_0169">
<regName>Eisenberg &lt;Thüringen&gt;</regName>
<curName/>
<country>GM</country>
<coordinates>
<latitude>50.9667</latitude>
<longitude>11.9</longitude>
</coordinates>
<variants>
<variant>
<name>Eisenberg</name>
<instances>4</instances>
</variant>
</variants>
<notes/>
</pubPlace>
<pubPlace id="place_0170">
<regName>Eisleben</regName>
<curName/>
<country>GM</country>
<coordinates>
<latitude>51.5333</latitude>
<longitude>11.5500</longitude>
</coordinates>
<variants>
<variant>
<name>Eisleb</name>
<instances>94</instances>
</variant>
<variant>
<name>Eisleben</name>
<instances>121</instances>
</variant>
</variants>
<notes/>
</pubPlace>
<pubPlace id="place_0171">
<regName>Elberfeld</regName>
<curName/>
<country>GM</country>
<coordinates>
<latitude>51.2667</latitude>
<longitude>7.1333</longitude>
</coordinates>
<variants>
<variant>
<name>Elberf</name>
<instances>412</instances>
</variant>
<variant>
<name>Elberfeld</name>
<instances>590</instances>
</variant>
<variant>
<name>Elberfeldt</name>
<instances>257</instances>
</variant>
</variants>
<notes>
<note>typo in orig.</note>
</notes>
</pubPlace>
<pubPlace id="place_0172">
<regName>Elbing</regName>
<curName>Elbląg</curName>
<country>PL</country>
<coordinates>
<latitude>54.1667</latitude>
<longitude>19.4167</longitude>
</coordinates>
<variants>
<variant>
<name>Elbing</name>
<instances>14</instances>
</variant>
</variants>
<notes/>
</pubPlace>
<pubPlace id="place_0173">
<regName>Elbogen</regName>
<curName/>
<country/>
<coordinates>
<latitude/>
<longitude/>
</coordinates>
<variants>
<variant>
<name>Elbogen</name>
<instances>1</instances>
</variant>
</variants>
<notes>
<note>could this be in Sweden?.</note>
</notes>
</pubPlace>
<pubPlace id="place_0174">
<regName>Ellwangen</regName>
<curName/>
<country>GM</country>
<coordinates>
<latitude>48.9500</latitude>
<longitude>10.1167</longitude>
</coordinates>
<variants>
<variant>
<name>Ellwangen</name>
<instances>2</instances>
</variant>
</variants>
<notes/>
</pubPlace>
<pubPlace id="place_0175">
<regName>Elmshorn</regName>
<curName/>
<country>GM</country>
<coordinates>
<latitude>53.7500</latitude>
<longitude>9.6500</longitude>
</coordinates>
<variants>
<variant>
<name>Elmshorn</name>
<instances>2</instances>
</variant>
</variants>
<notes/>
</pubPlace>
<pubPlace id="place_0176">
<regName>Elnbogen</regName>
<curName/>
<country>EZ</country>
<coordinates>
<latitude>50.2000</latitude>
<longitude>12.7500</longitude>
</coordinates>
<variants>
<variant>
<name>Elnbogen</name>
<instances>1</instances>
</variant>
</variants>
<notes>
<note>CK says: Carlsbad und Elnbogen: Gebr. Franieck.</note>
</notes>
</pubPlace>
<pubPlace id="place_0177">
<regName>Emden</regName>
<curName/>
<country>GM</country>
<coordinates>
<latitude>53.3833</latitude>
<longitude>7.2167</longitude>
</coordinates>
<variants>
<variant>
<name>Emden</name>
<instances>7</instances>
</variant>
</variants>
<notes/>
</pubPlace>
<pubPlace id="place_0178">
<regName>Emmerich</regName>
<curName/>
<country>GM</country>
<coordinates>
<latitude>51.8167</latitude>
<longitude>6.2667</longitude>
</coordinates>
<variants>
<variant>
<name>Emmerich</name>
<instances>5</instances>
</variant>
</variants>
<notes/>
</pubPlace>
<pubPlace id="place_0179">
<regName>Ems &lt;Rhein-Lahn-Kreis&gt;</regName>
<curName/>
<country>GM</country>
<coordinates>
<latitude>50.3333</latitude>
<longitude>7.7167</longitude>
</coordinates>
<variants>
<variant>
<name>Ems</name>
<instances>5</instances>
</variant>
<variant>
<name>Bad-Ems</name>
<instances>4</instances>
</variant>
</variants>
<notes>
<note>GKD-Ansetzung: Ems.</note>
</notes>
</pubPlace>
<pubPlace id="place_0180">
<regName>Erding</regName>
<curName/>
<country>GM</country>
<coordinates>
<latitude>48.2833</latitude>
<longitude>11.9167</longitude>
</coordinates>
<variants>
<variant>
<name>Erding</name>
<instances>121</instances>
</variant>
</variants>
<notes/>
</pubPlace>
<pubPlace id="place_0181">
<regName>Erfurt</regName>
<curName/>
<country>GM</country>
<coordinates>
<latitude>50.9667</latitude>
<longitude>11.0500</longitude>
</coordinates>
<variants>
<variant>
<name>Erf</name>
<instances>706</instances>
</variant>
<variant>
<name>Erfurt</name>
<instances>1064</instances>
</variant>
<variant>
<name>Ersfurt</name>
<instances>706</instances>
</variant>
</variants>
<notes/>
</pubPlace>
<pubPlace id="place_0182">
<regName>Erlangen</regName>
<curName/>
<country>GM</country>
<coordinates>
<latitude>49.6000</latitude>
<longitude>11.0333</longitude>
</coordinates>
<variants>
<variant>
<name>Erlangen</name>
<instances>62</instances>
</variant>
</variants>
<notes/>
</pubPlace>
<pubPlace id="place_0183">
<regName>Erlau</regName>
<curName>Eger</curName>
<country>HU</country>
<coordinates>
<latitude>47.8833</latitude>
<longitude>20.4667</longitude>
</coordinates>
<variants>
<variant>
<name>Erlau</name>
<instances>20</instances>
</variant>
</variants>
<notes/>
</pubPlace>
<pubPlace id="place_0184">
<regName>Essen</regName>
<curName/>
<country>GM</country>
<coordinates>
<latitude>51.4500</latitude>
<longitude>6.9500</longitude>
</coordinates>
<variants>
<variant>
<name>Essen</name>
<instances>262</instances>
</variant>
<variant>
<name>Esser</name>
<instances>19</instances>
</variant>
</variants>
<notes/>
</pubPlace>
<pubPlace id="place_0185">
<regName>Esslingen &lt;Neckar&gt;</regName>
<curName/>
<country>GM</country>
<coordinates>
<latitude>48.7500</latitude>
<longitude>9.3167</longitude>
</coordinates>
<variants>
<variant>
<name>Esslingen</name>
<instances>28</instances>
</variant>
</variants>
<notes>
<note>GKD-Ansetzung: Esslingen.</note>
</notes>
</pubPlace>
<pubPlace id="place_0186">
<regName>Eutin</regName>
<curName/>
<country>GM</country>
<coordinates>
<latitude>54.1333</latitude>
<longitude>10.6167</longitude>
</coordinates>
<variants>
<variant>
<name>Eutin</name>
<instances>2</instances>
</variant>
</variants>
<notes/>
</pubPlace>
<pubPlace id="place_0187">
<regName>Eutritzsch</regName>
<curName/>
<country>GM</country>
<coordinates>
<latitude>51.3333</latitude>
<longitude>12.4167</longitude>
</coordinates>
<variants>
<variant>
<name>Eutritzsch</name>
<instances>13</instances>
</variant>
<variant>
<name>Eutritzsch-Leipzig</name>
<instances>13</instances>
</variant>
</variants>
<notes>
<note>1890 nach Leipzig eingemeindet.</note>
</notes>
</pubPlace>
<pubPlace id="place_0188">
<regName>Eythra</regName>
<curName/>
<country>GM</country>
<coordinates>
<latitude>51.2333</latitude>
<longitude>12.3000</longitude>
</coordinates>
<variants>
<variant>
<name>Eythra</name>
<instances>118</instances>
</variant>
<variant>
<name>Eythre</name>
<instances>73</instances>
</variant>
</variants>
<notes/>
</pubPlace>
<pubPlace id="place_0189">
<regName>Falkenberg</regName>
<curName/>
<country/>
<coordinates>
<latitude/>
<longitude/>
</coordinates>
<variants>
<variant>
<name>Falkenberg</name>
<instances>27</instances>
</variant>
</variants>
<notes>
<note>several possibilities.</note>
</notes>
</pubPlace>
<pubPlace id="place_0190">
<regName>Falkenhagen</regName>
<curName/>
<country>GM</country>
<coordinates>
<latitude/>
<longitude/>
</coordinates>
<variants>
<variant>
<name>Falkenhagen</name>
<instances>4</instances>
</variant>
</variants>
<notes>
<note>2 possibilities in Getty and more in Tageo. Not possible to determin.</note>
</notes>
</pubPlace>
<pubPlace id="place_0191">
<regName>Finsterwalde</regName>
<curName/>
<country>GM</country>
<coordinates>
<latitude>51.6333</latitude>
<longitude>13.7167</longitude>
</coordinates>
<variants>
<variant>
<name>Finsterwalde</name>
<instances>1</instances>
</variant>
</variants>
<notes/>
</pubPlace>
<pubPlace id="place_0192">
<regName>Fiume</regName>
<curName>Rijeka</curName>
<country>HR</country>
<coordinates>
<latitude>45.3333</latitude>
<longitude>14.45</longitude>
</coordinates>
<variants>
<variant>
<name>Fiume</name>
<instances>13</instances>
</variant>
</variants>
<notes>
<note>present name Rijeka.</note>
</notes>
</pubPlace>
<pubPlace id="place_0193">
<regName>Flawyl</regName>
<curName/>
<country>SZ</country>
<coordinates>
<latitude>47.4167</latitude>
<longitude>9.2</longitude>
</coordinates>
<variants>
<variant>
<name>Flawyl</name>
<instances>1</instances>
</variant>
</variants>
<notes>
<note>Flawil.</note>
</notes>
</pubPlace>
<pubPlace id="place_0194">
<regName>Flensburg</regName>
<curName/>
<country>GM</country>
<coordinates>
<latitude>54.7833</latitude>
<longitude>9.4333</longitude>
</coordinates>
<variants>
<variant>
<name>Flensburg</name>
<instances>24</instances>
</variant>
</variants>
<notes/>
</pubPlace>
<pubPlace id="place_0195">
<regName>Florenz</regName>
<curName>Firenze</curName>
<country>IT</country>
<coordinates>
<latitude>43.7830</latitude>
<longitude>11.2500</longitude>
</coordinates>
<variants>
<variant>
<name>Florenz</name>
<instances>13</instances>
</variant>
</variants>
<notes/>
</pubPlace>
<pubPlace id="place_0196">
<regName>Forst &lt;Lausitz&gt;</regName>
<curName/>
<country>GM</country>
<coordinates>
<latitude>51.7667</latitude>
<longitude>14.6500</longitude>
</coordinates>
<variants>
<variant>
<name>Forst</name>
<instances>10</instances>
</variant>
</variants>
<notes/>
</pubPlace>
<pubPlace id="place_0197">
<regName>Frankenberg &lt;Mittweida&gt;</regName>
<curName/>
<country>GM</country>
<coordinates>
<latitude>50.9167</latitude>
<longitude>13.0500</longitude>
</coordinates>
<variants>
<variant>
<name>Frankenberg</name>
<instances>20</instances>
</variant>
<variant>
<name>Frankenberg i./S</name>
<instances>13</instances>
</variant>
<variant>
<name>Frankenberg i/S</name>
<instances>13</instances>
</variant>
</variants>
<notes>
<note>wirklich Chemnitz? Oder Hessen.Kassel.</note>
<note>is this Frankenberg &lt;Mittweida&gt;? - yes, my birthplace (CK).</note>
</notes>
</pubPlace>
<pubPlace id="place_0198">
<regName>Frankenhausen</regName>
<curName/>
<country>GM</country>
<coordinates>
<latitude>51.3667</latitude>
<longitude>11.1167</longitude>
</coordinates>
<variants>
<variant>
<name>Frankenhausen</name>
<instances>1</instances>
</variant>
</variants>
<notes>
<note>Bad Frankenhausen?.</note>
</notes>
</pubPlace>
<pubPlace id="place_0199">
<regName>Frankfurt</regName>
<curName/>
<country>GM</country>
<coordinates>
<latitude/>
<longitude/>
</coordinates>
<variants>
<variant>
<name>Frankf</name>
<instances>437</instances>
</variant>
<variant>
<name>Frankfnrt</name>
<instances>437</instances>
</variant>
<variant>
<name>Frankfurt</name>
<instances>469</instances>
</variant>
</variants>
<notes/>
</pubPlace>
<pubPlace id="place_0200">
<regName>Frankfurt &lt;Main&gt;</regName>
<curName/>
<country>GM</country>
<coordinates>
<latitude>50.1000</latitude>
<longitude>8.6833</longitude>
</coordinates>
<variants>
<variant>
<name>Frankf. a. M</name>
<instances>57</instances>
</variant>
<variant>
<name>Frankf., a. M</name>
<instances>57</instances>
</variant>
<variant>
<name>Frankfurt a. M</name>
<instances>1000</instances>
</variant>
<variant>
<name>Frankfurt a/M</name>
<instances>1000</instances>
</variant>
<variant>
<name>Fkf. a/M</name>
<instances>182</instances>
</variant>
<variant>
<name>Frankfurt a M</name>
<instances>776</instances>
</variant>
<variant>
<name>Frkf. a/M</name>
<instances>182</instances>
</variant>
<variant>
<name>Franfkurt a/M</name>
<instances>460</instances>
</variant>
<variant>
<name>Frankf. a/M</name>
<instances>460</instances>
</variant>
<variant>
<name>Frankfurt a./M</name>
<instances>594</instances>
</variant>
<variant>
<name>Frankfurt a/M.</name>
<instances>460</instances>
</variant>
<variant>
<name>Frankturt a/M.</name>
<instances>134</instances>
</variant>
</variants>
<notes/>
</pubPlace>
<pubPlace id="place_0201">
<regName>Frankfurt &lt;Oder&gt;</regName>
<curName/>
<country>GM</country>
<coordinates>
<latitude>52.3333</latitude>
<longitude>14.5333</longitude>
</coordinates>
<variants>
<variant>
<name>Fankf. a. d. O</name>
<instances>137</instances>
</variant>
<variant>
<name>Franfurt a. O</name>
<instances>137</instances>
</variant>
<variant>
<name>Frankf. a. d. O</name>
<instances>137</instances>
</variant>
<variant>
<name>Frankf. a. O</name>
<instances>137</instances>
</variant>
<variant>
<name>Frankfurt a O</name>
<instances>680</instances>
</variant>
<variant>
<name>Frankfurt a. d. O</name>
<instances>257</instances>
</variant>
<variant>
<name>Frankfurt a. O</name>
<instances>1244</instances>
</variant>
<variant>
<name>Frankfurt a/O</name>
<instances>1244</instances>
</variant>
<variant>
<name>Frkf. a. O</name>
<instances>137</instances>
</variant>
<variant>
<name>Frank a/O</name>
<instances>211</instances>
</variant>
<variant>
<name>Frankf. a/O</name>
<instances>754</instances>
</variant>
<variant>
<name>Frankfurt a./O</name>
<instances>874</instances>
</variant>
<variant>
<name>Frankfurt a/O.</name>
<instances>211</instances>
</variant>
<variant>
<name>Fkf. a/O</name>
<instances>543</instances>
</variant>
<variant>
<name>Frankfart a/O.</name>
<instances>543</instances>
</variant>
<variant>
<name>Frankfurt a, O</name>
<instances>543</instances>
</variant>
<variant>
<name>Frankfurt. a/O</name>
<instances>543</instances>
</variant>
</variants>
<notes/>
</pubPlace>
<pubPlace id="place_0202">
<regName>Frauenfeld</regName>
<curName/>
<country>SZ</country>
<coordinates>
<latitude>47.5667</latitude>
<longitude>8.9000</longitude>
</coordinates>
<variants>
<variant>
<name>Frauenfeld</name>
<instances>7</instances>
</variant>
</variants>
<notes/>
</pubPlace>
<pubPlace id="place_0203">
<regName>Fraustadt</regName>
<curName>Wschowa</curName>
<country>PL</country>
<coordinates>
<latitude>51.8167</latitude>
<longitude>16.2500</longitude>
</coordinates>
<variants>
<variant>
<name>Fraustadt</name>
<instances>4</instances>
</variant>
</variants>
<notes>
<note>Wschowa, Fraustadt in Groß Pohlen.</note>
</notes>
</pubPlace>
<pubPlace id="place_0204">
<regName>Freiberg</regName>
<curName/>
<country/>
<coordinates>
<latitude/>
<longitude/>
</coordinates>
<variants/>
<notes/>
</pubPlace>
<pubPlace id="place_0205">
<regName>Freiberg &lt;Sachsen&gt;</regName>
<curName/>
<country>GM</country>
<coordinates>
<latitude>50.9167</latitude>
<longitude>13.35</longitude>
</coordinates>
<variants>
<variant>
<name>Freiberg</name>
<instances>18</instances>
</variant>
</variants>
<notes>
<note>I'm pretty sure these firms are all in Freiberg &lt;Sachsen&gt;. Can't be sure for Schultz and Wolf. Herder should be Freiburg &lt;Breisgau&gt;.</note>
</notes>
</pubPlace>
<pubPlace id="place_0206">
<regName>Freiburg &lt;Breisgau&gt;</regName>
<curName/>
<country>GM</country>
<coordinates>
<latitude>48.0000</latitude>
<longitude>7.8667</longitude>
</coordinates>
<variants>
<variant>
<name>Freiburg</name>
<instances>212</instances>
</variant>
<variant>
<name>Freiburg i. B</name>
<instances>174</instances>
</variant>
<variant>
<name>Freiburg i/Br</name>
<instances>217</instances>
</variant>
<variant>
<name>Freiburg i/B</name>
<instances>199</instances>
</variant>
<variant>
<name>Freiburg i/Br.</name>
<instances>130</instances>
</variant>
<variant>
<name>Freiburg i./Br</name>
<instances>38</instances>
</variant>
<variant>
<name>Freiburg, i/B</name>
<instances>69</instances>
</variant>
</variants>
<notes>
<note>just 4 entries in 1838 which might possibly be another Freiburg. But distributed by Schubert of Leipzig, so hard to tell definitely.</note>
</notes>
</pubPlace>
<pubPlace id="place_0207">
<regName>Freienwalde &lt;Oder&gt;</regName>
<curName/>
<country>GM</country>
<coordinates>
<latitude>52.7833</latitude>
<longitude>14.0333</longitude>
</coordinates>
<variants>
<variant>
<name>Freienwalde</name>
<instances>3</instances>
</variant>
<variant>
<name>Freienwalde a/O</name>
<instances>2</instances>
</variant>
</variants>
<notes/>
</pubPlace>
<pubPlace id="place_0208">
<regName>Freising</regName>
<curName/>
<country>GM</country>
<coordinates>
<latitude>48.4000</latitude>
<longitude>11.7500</longitude>
</coordinates>
<variants>
<variant>
<name>Freising</name>
<instances>24</instances>
</variant>
</variants>
<notes/>
</pubPlace>
<pubPlace id="place_0209">
<regName>Freiwaldau &lt;Nordmährisches Gebiet&gt;</regName>
<curName>Jesenik</curName>
<country>EZ</country>
<coordinates>
<latitude>50.25</latitude>
<longitude>17.1667</longitude>
</coordinates>
<variants>
<variant>
<name>Freiwaldau</name>
<instances>2</instances>
</variant>
</variants>
<notes/>
</pubPlace>
<pubPlace id="place_0210">
<regName>Freudenthal</regName>
<curName>Bruntál</curName>
<country>EZ</country>
<coordinates>
<latitude>50.0000</latitude>
<longitude>17.4500</longitude>
</coordinates>
<variants>
<variant>
<name>Freudenthal</name>
<instances>7</instances>
</variant>
</variants>
<notes>
<note>Bruntál.</note>
</notes>
</pubPlace>
<pubPlace id="place_0211">
<regName>Fribourg</regName>
<curName/>
<country>SZ</country>
<coordinates>
<latitude>46.8333</latitude>
<longitude>7.1667</longitude>
</coordinates>
<variants>
<variant>
<name>Freiburg (Schweiz)</name>
<instances>1</instances>
</variant>
</variants>
<notes/>
</pubPlace>
<pubPlace id="place_0212">
<regName>Friedberg &lt;Hessen&gt;</regName>
<curName/>
<country>GM</country>
<coordinates>
<latitude>50.3333</latitude>
<longitude>8.7500</longitude>
</coordinates>
<variants>
<variant>
<name>Friedberg</name>
<instances>10</instances>
</variant>
</variants>
<notes/>
</pubPlace>
<pubPlace id="place_0213">
<regName>Friedeberg</regName>
<curName>Strzelce</curName>
<country>PL</country>
<coordinates>
<latitude>52.8833</latitude>
<longitude>15.5167</longitude>
</coordinates>
<variants>
<variant>
<name>Friedeberg</name>
<instances>1</instances>
</variant>
</variants>
<notes>
<note>investigate…cd. Be Isergebirge or Neumark.</note>
</notes>
</pubPlace>
<pubPlace id="place_0214">
<regName>Friedek</regName>
<curName/>
<country>EZ</country>
<coordinates>
<latitude>49.683</latitude>
<longitude>18.35</longitude>
</coordinates>
<variants>
<variant>
<name>Friedek</name>
<instances>6</instances>
</variant>
</variants>
<notes/>
</pubPlace>
<pubPlace id="place_0215">
<regName>Friedland &lt;Mecklenburg-Strelitz&gt;</regName>
<curName/>
<country>GM</country>
<coordinates>
<latitude>53.6833</latitude>
<longitude>13.5667</longitude>
</coordinates>
<variants>
<variant>
<name>Friedland</name>
<instances>2</instances>
</variant>
</variants>
<notes>
<note>GKD-Ansetzung: Friedland &lt;Neubrandenburg&gt;.</note>
</notes>
</pubPlace>
<pubPlace id="place_0216">
<regName>Friedrichroda</regName>
<curName/>
<country>GM</country>
<coordinates>
<latitude>50.8500</latitude>
<longitude>10.5667</longitude>
</coordinates>
<variants>
<variant>
<name>Friedrichroda</name>
<instances>1</instances>
</variant>
</variants>
<notes/>
</pubPlace>
<pubPlace id="place_0217">
<regName>Friedrichshafen</regName>
<curName/>
<country>GM</country>
<coordinates>
<latitude>47.65</latitude>
<longitude>9.5</longitude>
</coordinates>
<variants>
<variant>
<name>Friedrichshafen</name>
<instances>1</instances>
</variant>
</variants>
<notes/>
</pubPlace>
<pubPlace id="place_0218">
<regName>Fulda</regName>
<curName/>
<country>GM</country>
<coordinates>
<latitude>50.5500</latitude>
<longitude>9.6833</longitude>
</coordinates>
<variants>
<variant>
<name>Fulda</name>
<instances>82</instances>
</variant>
</variants>
<notes/>
</pubPlace>
<pubPlace id="place_0219">
<regName>Fürstenwalde</regName>
<curName/>
<country>GM</country>
<coordinates>
<latitude>52.3667</latitude>
<longitude>14.0667</longitude>
</coordinates>
<variants>
<variant>
<name>Fürstenwalde</name>
<instances>12</instances>
</variant>
</variants>
<notes/>
</pubPlace>
<pubPlace id="place_0220">
<regName>Fürth &lt;Bayern&gt;</regName>
<curName/>
<country>GM</country>
<coordinates>
<latitude>49.4667</latitude>
<longitude>10.9833</longitude>
</coordinates>
<variants>
<variant>
<name>Fürth</name>
<instances>6</instances>
</variant>
</variants>
<notes>
<note>GKD-Ansetzung: Fürth &lt;Bayern&gt;.</note>
</notes>
</pubPlace>
<pubPlace id="place_0221">
<regName>Gablonz &lt;Neisse&gt;</regName>
<curName>Jablonec</curName>
<country>EZ</country>
<coordinates>
<latitude>50.7333</latitude>
<longitude>15.1667</longitude>
</coordinates>
<variants>
<variant>
<name>Gablonz</name>
<instances>13</instances>
</variant>
<variant>
<name>Gablonz a/N</name>
<instances>1</instances>
</variant>
</variants>
<notes>
<note>Jablonec &lt;Neisse&gt; now in CZ.</note>
</notes>
</pubPlace>
<pubPlace id="place_0222">
<regName>Gaschurn</regName>
<curName/>
<country>AU</country>
<coordinates>
<latitude>46.983</latitude>
<longitude>10.033</longitude>
</coordinates>
<variants>
<variant>
<name>Gaschurn</name>
<instances>3</instances>
</variant>
</variants>
<notes/>
</pubPlace>
<pubPlace id="place_0223">
<regName>Geestemünde</regName>
<curName/>
<country>GM</country>
<coordinates>
<latitude>53.55</latitude>
<longitude>8.5833</longitude>
</coordinates>
<variants>
<variant>
<name>Geestemünde</name>
<instances>1</instances>
</variant>
</variants>
<notes>
<note>Wesermünde - name used for united Lehe and Geestemünde from 1924, absorbed Bremerhaven in 1939 and continued to use this name until 1947.</note>
</notes>
</pubPlace>
<pubPlace id="place_0224">
<regName>Gelsenkirchen</regName>
<curName/>
<country>GM</country>
<coordinates>
<latitude>51.5</latitude>
<longitude>7.0833</longitude>
</coordinates>
<variants>
<variant>
<name>Gelsenkirchen</name>
<instances>1</instances>
</variant>
</variants>
<notes/>
</pubPlace>
<pubPlace id="place_0225">
<regName>Genf</regName>
<curName>Genève</curName>
<country>SZ</country>
<coordinates>
<latitude>46.2167</latitude>
<longitude>6.1500</longitude>
</coordinates>
<variants>
<variant>
<name>Genf</name>
<instances>24</instances>
</variant>
</variants>
<notes>
<note>GKD-Ansetzung: Genève.</note>
</notes>
</pubPlace>
<pubPlace id="place_0226">
<regName>Gent</regName>
<curName/>
<country>BE</country>
<coordinates>
<latitude>51.0333</latitude>
<longitude>3.7000</longitude>
</coordinates>
<variants>
<variant>
<name>Gent</name>
<instances>11</instances>
</variant>
<variant>
<name>Gand</name>
<instances>9</instances>
</variant>
</variants>
<notes>
<note>GKD-Ansetzung: Gand.</note>
</notes>
</pubPlace>
<pubPlace id="place_0227">
<regName>Genua</regName>
<curName>Genoa</curName>
<country>IT</country>
<coordinates>
<latitude>44.417</latitude>
<longitude>8.95</longitude>
</coordinates>
<variants>
<variant>
<name>Genua</name>
<instances>2</instances>
</variant>
</variants>
<notes/>
</pubPlace>
<pubPlace id="place_0228">
<regName>Gera</regName>
<curName/>
<country>GM</country>
<coordinates>
<latitude>50.8667</latitude>
<longitude>12.0833</longitude>
</coordinates>
<variants>
<variant>
<name>Gera</name>
<instances>86</instances>
</variant>
</variants>
<notes/>
</pubPlace>
<pubPlace id="place_0229">
<regName>Giessen</regName>
<curName/>
<country>GM</country>
<coordinates>
<latitude>50.5833</latitude>
<longitude>8.7000</longitude>
</coordinates>
<variants>
<variant>
<name>Giessen</name>
<instances>49</instances>
</variant>
</variants>
<notes/>
</pubPlace>
<pubPlace id="place_0230">
<regName>Gladbuch</regName>
<curName/>
<country>GM</country>
<coordinates>
<latitude/>
<longitude/>
</coordinates>
<variants>
<variant>
<name>Gladbuch</name>
<instances>1</instances>
</variant>
</variants>
<notes>
<note>probably same as München-Gladbach, but hard to determin.</note>
</notes>
</pubPlace>
<pubPlace id="place_0231">
<regName>Glasgow</regName>
<curName/>
<country>UK</country>
<coordinates>
<latitude>55.8833</latitude>
<longitude>-4.2500</longitude>
</coordinates>
<variants>
<variant>
<name>Glasgow</name>
<instances>1</instances>
</variant>
</variants>
<notes/>
</pubPlace>
<pubPlace id="place_0232">
<regName>Glatz</regName>
<curName>Kłodzko</curName>
<country>PL</country>
<coordinates>
<latitude>50.4667</latitude>
<longitude>16.6667</longitude>
</coordinates>
<variants>
<variant>
<name>Glatz</name>
<instances>5</instances>
</variant>
</variants>
<notes>
<note>Kłodzko.</note>
</notes>
</pubPlace>
<pubPlace id="place_0233">
<regName>Glauchau</regName>
<curName/>
<country>GM</country>
<coordinates>
<latitude>50.8000</latitude>
<longitude>12.5333</longitude>
</coordinates>
<variants>
<variant>
<name>Glaucha</name>
<instances>3</instances>
</variant>
<variant>
<name>Glauchau</name>
<instances>19</instances>
</variant>
</variants>
<notes/>
</pubPlace>
<pubPlace id="place_0234">
<regName>Gleiwitz</regName>
<curName>Gliwice</curName>
<country>PL</country>
<coordinates>
<latitude>50.3333</latitude>
<longitude>18.6667</longitude>
</coordinates>
<variants>
<variant>
<name>Gleiwitz</name>
<instances>3</instances>
</variant>
</variants>
<notes/>
</pubPlace>
<pubPlace id="place_0235">
<regName>Glogau</regName>
<curName>Głogów</curName>
<country>PL</country>
<coordinates>
<latitude>50.1500</latitude>
<longitude>21.9667</longitude>
</coordinates>
<variants>
<variant>
<name>Glogau</name>
<instances>34</instances>
</variant>
</variants>
<notes/>
</pubPlace>
<pubPlace id="place_0236">
<regName>Glückstadt</regName>
<curName/>
<country>GM</country>
<coordinates>
<latitude>53.7833</latitude>
<longitude>9.4333</longitude>
</coordinates>
<variants>
<variant>
<name>Glückstadt</name>
<instances>1</instances>
</variant>
</variants>
<notes/>
</pubPlace>
<pubPlace id="place_0237">
<regName>Gmunden</regName>
<curName/>
<country>AU</country>
<coordinates>
<latitude>47.9333</latitude>
<longitude>13.8000</longitude>
</coordinates>
<variants>
<variant>
<name>Gmunden</name>
<instances>6</instances>
</variant>
</variants>
<notes/>
</pubPlace>
<pubPlace id="place_0238">
<regName>Godesberg</regName>
<curName/>
<country>GM</country>
<coordinates>
<latitude>50.6833</latitude>
<longitude>7.1500</longitude>
</coordinates>
<variants>
<variant>
<name>Godesberg</name>
<instances>59</instances>
</variant>
</variants>
<notes>
<note>aka Bad Godesberg in GR.</note>
</notes>
</pubPlace>
<pubPlace id="place_0239">
<regName>Goldberg</regName>
<curName/>
<country>GM</country>
<coordinates>
<latitude>51.1333</latitude>
<longitude>15.9500</longitude>
</coordinates>
<variants>
<variant>
<name>Goldberg</name>
<instances>1</instances>
</variant>
</variants>
<notes>
<note>&lt;Liegnitz&gt; i.e. Silesia, or Mecklenburg. Silesia seems more likely because of Breslau in the entry.</note>
</notes>
</pubPlace>
<pubPlace id="place_0240">
<regName>Goslar</regName>
<curName/>
<country>GM</country>
<coordinates>
<latitude>51.9167</latitude>
<longitude>10.4167</longitude>
</coordinates>
<variants>
<variant>
<name>Goslar</name>
<instances>4</instances>
</variant>
</variants>
<notes/>
</pubPlace>
<pubPlace id="place_0241">
<regName>Gotha</regName>
<curName/>
<country>GM</country>
<coordinates>
<latitude>50.9500</latitude>
<longitude>10.7167</longitude>
</coordinates>
<variants>
<variant>
<name>Gotha</name>
<instances>300</instances>
</variant>
</variants>
<notes/>
</pubPlace>
<pubPlace id="place_0242">
<regName>Gothenburg</regName>
<curName/>
<country>SW</country>
<coordinates>
<latitude>57.7167</latitude>
<longitude>11.9667</longitude>
</coordinates>
<variants>
<variant>
<name>Gothenburg</name>
<instances>5</instances>
</variant>
<variant>
<name>Göteborg</name>
<instances>2</instances>
</variant>
</variants>
<notes>
<note>GKD-Ansetzung: Göteborg.</note>
</notes>
</pubPlace>
<pubPlace id="place_0243">
<regName>Gran</regName>
<curName>Esztergom</curName>
<country>HU</country>
<coordinates>
<latitude>47.7667</latitude>
<longitude>18.7000</longitude>
</coordinates>
<variants>
<variant>
<name>Gran</name>
<instances>1</instances>
</variant>
</variants>
<notes>
<note>Esztergom.</note>
</notes>
</pubPlace>
<pubPlace id="place_0244">
<regName>Graudenz</regName>
<curName>Grudziądz</curName>
<country>PL</country>
<coordinates>
<latitude>53.4833</latitude>
<longitude>18.7500</longitude>
</coordinates>
<variants>
<variant>
<name>Graudenz</name>
<instances>11</instances>
</variant>
</variants>
<notes/>
</pubPlace>
<pubPlace id="place_0245">
<regName>Graz</regName>
<curName/>
<country>AU</country>
<coordinates>
<latitude>47.0833</latitude>
<longitude>15.3667</longitude>
</coordinates>
<variants>
<variant>
<name>Gratz</name>
<instances>60</instances>
</variant>
<variant>
<name>Grätz</name>
<instances>18</instances>
</variant>
<variant>
<name>Graz</name>
<instances>390</instances>
</variant>
</variants>
<notes/>
</pubPlace>
<pubPlace id="place_0246">
<regName>Greifenhain</regName>
<curName/>
<country>GM</country>
<coordinates>
<latitude>51.067</latitude>
<longitude>12.583</longitude>
</coordinates>
<variants>
<variant>
<name>Greifenhain</name>
<instances>1</instances>
</variant>
</variants>
<notes>
<note>not entirely sure about this!.</note>
</notes>
</pubPlace>
<pubPlace id="place_0247">
<regName>Greifswald</regName>
<curName/>
<country>GM</country>
<coordinates>
<latitude>54.0833</latitude>
<longitude>13.3833</longitude>
</coordinates>
<variants>
<variant>
<name>Greifswald</name>
<instances>13</instances>
</variant>
</variants>
<notes/>
</pubPlace>
<pubPlace id="place_0248">
<regName>Greiz</regName>
<curName/>
<country>GM</country>
<coordinates>
<latitude>50.6667</latitude>
<longitude>12.1833</longitude>
</coordinates>
<variants>
<variant>
<name>Greitz</name>
<instances>7</instances>
</variant>
<variant>
<name>Greiz</name>
<instances>15</instances>
</variant>
</variants>
<notes/>
</pubPlace>
<pubPlace id="place_0249">
<regName>Grimma</regName>
<curName/>
<country>GM</country>
<coordinates>
<latitude>51.2333</latitude>
<longitude>12.7167</longitude>
</coordinates>
<variants>
<variant>
<name>Grimma</name>
<instances>27</instances>
</variant>
</variants>
<notes/>
</pubPlace>
<pubPlace id="place_0250">
<regName>Gross Strehlitz</regName>
<curName>Strzelce</curName>
<country>PL</country>
<coordinates>
<latitude>50.5333</latitude>
<longitude>18.2500</longitude>
</coordinates>
<variants>
<variant>
<name>Gross-Strehlitz</name>
<instances>3</instances>
</variant>
<variant>
<name>Strehlitz</name>
<instances>1</instances>
</variant>
<variant>
<name>Gr.-Strehlitz</name>
<instances>2</instances>
</variant>
</variants>
<notes>
<note>now Poland?.</note>
<note>Verleger: Wilpert.</note>
</notes>
</pubPlace>
<pubPlace id="place_0251">
<regName>Grossenhain</regName>
<curName/>
<country>GM</country>
<coordinates>
<latitude>51.3000</latitude>
<longitude>13.5500</longitude>
</coordinates>
<variants>
<variant>
<name>Grossenhain</name>
<instances>7</instances>
</variant>
</variants>
<notes/>
</pubPlace>
<pubPlace id="place_0252">
<regName>Grosskanizsa</regName>
<curName>Nagykanizsa</curName>
<country>HU</country>
<coordinates>
<latitude>46.4500</latitude>
<longitude>17.0000</longitude>
</coordinates>
<variants>
<variant>
<name>Gr. Kanizsa</name>
<instances>2</instances>
</variant>
<variant>
<name>Gr.-Kanizsa</name>
<instances>2</instances>
</variant>
</variants>
<notes>
<note>Nagykanizsa.</note>
</notes>
</pubPlace>
<pubPlace id="place_0253">
<regName>Gröningen</regName>
<curName/>
<country>NL</country>
<coordinates>
<latitude>53.2167</latitude>
<longitude>6.5833</longitude>
</coordinates>
<variants>
<variant>
<name>Gröningen</name>
<instances>1</instances>
</variant>
<variant>
<name>Groningen</name>
<instances>1</instances>
</variant>
</variants>
<notes/>
</pubPlace>
<pubPlace id="place_0254">
<regName>Grünberg &lt;Schlesien&gt;</regName>
<curName>Zielona Góra</curName>
<country>PL</country>
<coordinates>
<latitude>51.9500</latitude>
<longitude>15.5000</longitude>
</coordinates>
<variants>
<variant>
<name>Grünberg</name>
<instances>18</instances>
</variant>
</variants>
<notes>
<note>GKD-Ansetzung: Grünberg &lt;Schlesien&gt;; Zielona Góra später.</note>
</notes>
</pubPlace>
<pubPlace id="place_0255">
<regName>Guben</regName>
<curName/>
<country>GM</country>
<coordinates>
<latitude>51.9500</latitude>
<longitude>14.7167</longitude>
</coordinates>
<variants>
<variant>
<name>Guben</name>
<instances>25</instances>
</variant>
</variants>
<notes/>
</pubPlace>
<pubPlace id="place_0256">
<regName>Guhrau</regName>
<curName>Góra</curName>
<country>PL</country>
<coordinates>
<latitude>51.6667</latitude>
<longitude>16.5333</longitude>
</coordinates>
<variants>
<variant>
<name>Guhrau</name>
<instances>3</instances>
</variant>
</variants>
<notes>
<note>Guhrau &lt;Breslau&gt;.</note>
</notes>
</pubPlace>
<pubPlace id="place_0257">
<regName>Gumbinnen</regName>
<curName>Gusev</curName>
<country>RS</country>
<coordinates>
<latitude>54.5667</latitude>
<longitude>22.2</longitude>
</coordinates>
<variants>
<variant>
<name>Gumbinnen</name>
<instances>1</instances>
</variant>
</variants>
<notes>
<note>später Gusev.</note>
</notes>
</pubPlace>
<pubPlace id="place_0258">
<regName>Gummersbach</regName>
<curName/>
<country>GM</country>
<coordinates>
<latitude>51.0333</latitude>
<longitude>7.5667</longitude>
</coordinates>
<variants>
<variant>
<name>Gummersbach</name>
<instances>1</instances>
</variant>
</variants>
<notes/>
</pubPlace>
<pubPlace id="place_0259">
<regName>Göppingen</regName>
<curName/>
<country>GM</country>
<coordinates>
<latitude>48.7167</latitude>
<longitude>9.6500</longitude>
</coordinates>
<variants>
<variant>
<name>Göppingen</name>
<instances>9</instances>
</variant>
</variants>
<notes/>
</pubPlace>
<pubPlace id="place_0260">
<regName>Görlitz</regName>
<curName/>
<country>GM</country>
<coordinates>
<latitude>51.1500</latitude>
<longitude>15.0000</longitude>
</coordinates>
<variants>
<variant>
<name>Görlitz</name>
<instances>98</instances>
</variant>
</variants>
<notes/>
</pubPlace>
<pubPlace id="place_0261">
<regName>Görz</regName>
<curName>Gorizia</curName>
<country>IT</country>
<coordinates>
<latitude>45.9500</latitude>
<longitude>13.6333</longitude>
</coordinates>
<variants>
<variant>
<name>Görz</name>
<instances>2</instances>
</variant>
</variants>
<notes>
<note>now Gorizia, Italy.</note>
</notes>
</pubPlace>
<pubPlace id="place_0262">
<regName>Göttingen</regName>
<curName/>
<country>GM</country>
<coordinates>
<latitude>51.5333</latitude>
<longitude>9.9500</longitude>
</coordinates>
<variants>
<variant>
<name>Göttingen</name>
<instances>115</instances>
</variant>
</variants>
<notes/>
</pubPlace>
<pubPlace id="place_0263">
<regName>Güns</regName>
<curName>Kőszeg</curName>
<country>HU</country>
<coordinates>
<latitude>47.3833</latitude>
<longitude>16.5333</longitude>
</coordinates>
<variants>
<variant>
<name>Güns</name>
<instances>1</instances>
</variant>
</variants>
<notes>
<note>Güns is OK. Have checked Karlsruhe catalogue.</note>
</notes>
</pubPlace>
<pubPlace id="place_0264">
<regName>Güstrow</regName>
<curName/>
<country>GM</country>
<coordinates>
<latitude>53.8000</latitude>
<longitude>12.1833</longitude>
</coordinates>
<variants>
<variant>
<name>Güstrow</name>
<instances>31</instances>
</variant>
</variants>
<notes/>
</pubPlace>
<pubPlace id="place_0265">
<regName>Gütersloh</regName>
<curName/>
<country>GM</country>
<coordinates>
<latitude>51.9000</latitude>
<longitude>8.3667</longitude>
</coordinates>
<variants>
<variant>
<name>Güterloh</name>
<instances>31</instances>
</variant>
<variant>
<name>Gütersloch</name>
<instances>31</instances>
</variant>
<variant>
<name>Gütersloh</name>
<instances>150</instances>
</variant>
</variants>
<notes/>
</pubPlace>
<pubPlace id="place_0266">
<regName>Haag</regName>
<curName>Den Haag</curName>
<country>NL</country>
<coordinates>
<latitude>52.0833</latitude>
<longitude>4.2667</longitude>
</coordinates>
<variants>
<variant>
<name>Gravenhage</name>
<instances>34</instances>
</variant>
<variant>
<name>Haag</name>
<instances>166</instances>
</variant>
</variants>
<notes>
<note>GKD-Ansetzung: 's-Gravenhage.</note>
</notes>
</pubPlace>
<pubPlace id="place_0267">
<regName>Haardt &lt;Weinstrasse&gt;</regName>
<curName/>
<country>GM</country>
<coordinates>
<latitude>49.35</latitude>
<longitude>8.15</longitude>
</coordinates>
<variants>
<variant>
<name>Neustadt a/H</name>
<instances>1</instances>
</variant>
</variants>
<notes>
<note>= Neustadt an der Haardt.</note>
</notes>
</pubPlace>
<pubPlace id="place_0268">
<regName>Haarlem</regName>
<curName/>
<country>NL</country>
<coordinates>
<latitude>52.3833</latitude>
<longitude>4.6333</longitude>
</coordinates>
<variants>
<variant>
<name>Haarlem</name>
<instances>1</instances>
</variant>
</variants>
<notes/>
</pubPlace>
<pubPlace id="place_0269">
<regName>Habelschwerdt</regName>
<curName>Bystrzyca Kłodzka</curName>
<country>PL</country>
<coordinates>
<latitude>50.3000</latitude>
<longitude>16.6500</longitude>
</coordinates>
<variants>
<variant>
<name>Habelschwerdt</name>
<instances>7</instances>
</variant>
</variants>
<notes>
<note>Bystrzyca Kłodzka.</note>
</notes>
</pubPlace>
<pubPlace id="place_0270">
<regName>Hadamar</regName>
<curName/>
<country>GM</country>
<coordinates>
<latitude>50.4500</latitude>
<longitude>8.0667</longitude>
</coordinates>
<variants>
<variant>
<name>Hadamar</name>
<instances>1</instances>
</variant>
</variants>
<notes/>
</pubPlace>
<pubPlace id="place_0271">
<regName>Hadersleben</regName>
<curName/>
<country>DA</country>
<coordinates>
<latitude>55.2500</latitude>
<longitude>9.5000</longitude>
</coordinates>
<variants>
<variant>
<name>Hadersleben</name>
<instances>7</instances>
</variant>
</variants>
<notes/>
</pubPlace>
<pubPlace id="place_0272">
<regName>Hagen</regName>
<curName/>
<country>GM</country>
<coordinates>
<latitude>51.3667</latitude>
<longitude>7.4500</longitude>
</coordinates>
<variants>
<variant>
<name>Hagen</name>
<instances>5</instances>
</variant>
</variants>
<notes/>
</pubPlace>
<pubPlace id="place_0273">
<regName>Hainichen</regName>
<curName/>
<country>GM</country>
<coordinates>
<latitude>50.9667</latitude>
<longitude>13.1333</longitude>
</coordinates>
<variants>
<variant>
<name>Hainichen</name>
<instances>1</instances>
</variant>
</variants>
<notes/>
</pubPlace>
<pubPlace id="place_0274">
<regName>Halberstadt</regName>
<curName/>
<country>GM</country>
<coordinates>
<latitude>51.9000</latitude>
<longitude>11.0667</longitude>
</coordinates>
<variants>
<variant>
<name>Halberst</name>
<instances>91</instances>
</variant>
<variant>
<name>Halberstadt</name>
<instances>114</instances>
</variant>
</variants>
<notes/>
</pubPlace>
<pubPlace id="place_0275">
<regName>Halle &lt;Saale&gt;</regName>
<curName/>
<country>GM</country>
<coordinates>
<latitude>51.4833</latitude>
<longitude>11.9667</longitude>
</coordinates>
<variants>
<variant>
<name>Halle</name>
<instances>508</instances>
</variant>
<variant>
<name>Halle a/S</name>
<instances>272</instances>
</variant>
<variant>
<name>Halle a S</name>
<instances>30</instances>
</variant>
</variants>
<notes/>
</pubPlace>
<pubPlace id="place_0276">
<regName>Hamburg</regName>
<curName/>
<country>GM</country>
<coordinates>
<latitude>53.5500</latitude>
<longitude>10.0000</longitude>
</coordinates>
<variants>
<variant>
<name>Ham</name>
<instances>4963</instances>
</variant>
<variant>
<name>Ham-</name>
<instances>4963</instances>
</variant>
<variant>
<name>Hamb</name>
<instances>6337</instances>
</variant>
<variant>
<name>Hambourg</name>
<instances>4963</instances>
</variant>
<variant>
<name>Hamburg</name>
<instances>16736</instances>
</variant>
<variant>
<name>Hamburgg</name>
<instances>1374</instances>
</variant>
<variant>
<name>Hamburrg</name>
<instances>8202</instances>
</variant>
<variant>
<name>Hamubrg</name>
<instances>726</instances>
</variant>
</variants>
<notes/>
</pubPlace>
<pubPlace id="place_0277">
<regName>Hameln</regName>
<curName/>
<country>GM</country>
<coordinates>
<latitude>52.1167</latitude>
<longitude>9.3667</longitude>
</coordinates>
<variants>
<variant>
<name>Hameln</name>
<instances>305</instances>
</variant>
</variants>
<notes/>
</pubPlace>
<pubPlace id="place_0278">
<regName>Hamm</regName>
<curName/>
<country>GM</country>
<coordinates>
<latitude>51.3833</latitude>
<longitude>7.0500</longitude>
</coordinates>
<variants>
<variant>
<name>Hamm</name>
<instances>17</instances>
</variant>
</variants>
<notes>
<note>GKD-Ansetzung: Hamm &lt;Westfalen&gt;, but not possible to verify this… publisher Wundermann not yet in GR.</note>
</notes>
</pubPlace>
<pubPlace id="place_0279">
<regName>Hanau</regName>
<curName/>
<country>GM</country>
<coordinates>
<latitude>50.1333</latitude>
<longitude>8.9333</longitude>
</coordinates>
<variants>
<variant>
<name>Hanau</name>
<instances>25</instances>
</variant>
</variants>
<notes/>
</pubPlace>
<pubPlace id="place_0280">
<regName>Hannover</regName>
<curName/>
<country>GM</country>
<coordinates>
<latitude>52.4000</latitude>
<longitude>9.7333</longitude>
</coordinates>
<variants>
<variant>
<name>Hann</name>
<instances>1222</instances>
</variant>
<variant>
<name>Hannov</name>
<instances>1222</instances>
</variant>
<variant>
<name>Hannover</name>
<instances>5632</instances>
</variant>
<variant>
<name>Hannovor</name>
<instances>1222</instances>
</variant>
<variant>
<name>Hanover</name>
<instances>1222</instances>
</variant>
</variants>
<notes/>
</pubPlace>
<pubPlace id="place_0281">
<regName>Hannover-Linden</regName>
<curName/>
<country>GM</country>
<coordinates>
<latitude>52.4000</latitude>
<longitude>9.7333</longitude>
</coordinates>
<variants>
<variant>
<name>Hannover-Linden</name>
<instances>7</instances>
</variant>
<variant>
<name>Linden</name>
<instances>7</instances>
</variant>
</variants>
<notes>
<note>I'm not really convinced by these co-ordinates, but can't come up with anything better.</note>
</notes>
</pubPlace>
<pubPlace id="place_0282">
<regName>Harzburg</regName>
<curName/>
<country>GM</country>
<coordinates>
<latitude>51.8833</latitude>
<longitude>10.55</longitude>
</coordinates>
<variants>
<variant>
<name>Harzburg</name>
<instances>17</instances>
</variant>
</variants>
<notes/>
</pubPlace>
<pubPlace id="place_0283">
<regName>Haynau</regName>
<curName>Chojnów</curName>
<country>PL</country>
<coordinates>
<latitude>51.3000</latitude>
<longitude>15.9667</longitude>
</coordinates>
<variants>
<variant>
<name>Haynau</name>
<instances>5</instances>
</variant>
</variants>
<notes>
<note>später Chojnów.</note>
</notes>
</pubPlace>
<pubPlace id="place_0284">
<regName>Hechingen</regName>
<curName/>
<country>GM</country>
<coordinates>
<latitude>48.3500</latitude>
<longitude>8.9667</longitude>
</coordinates>
<variants>
<variant>
<name>Hechingen</name>
<instances>3</instances>
</variant>
</variants>
<notes/>
</pubPlace>
<pubPlace id="place_0285">
<regName>Heidelberg</regName>
<curName/>
<country>GM</country>
<coordinates>
<latitude>49.4167</latitude>
<longitude>8.7000</longitude>
</coordinates>
<variants>
<variant>
<name>Heidelb</name>
<instances>25</instances>
</variant>
<variant>
<name>Heidelberg</name>
<instances>152</instances>
</variant>
</variants>
<notes/>
</pubPlace>
<pubPlace id="place_0286">
<regName>Heilbronn</regName>
<curName/>
<country>GM</country>
<coordinates>
<latitude>49.1333</latitude>
<longitude>9.2333</longitude>
</coordinates>
<variants>
<variant>
<name>Heilbronn</name>
<instances>1269</instances>
</variant>
</variants>
<notes/>
</pubPlace>
<pubPlace id="place_0287">
<regName>Heiligenstadt &lt;Eichsfeld&gt;</regName>
<curName/>
<country>GM</country>
<coordinates>
<latitude>51.3833</latitude>
<longitude>10.1500</longitude>
</coordinates>
<variants>
<variant>
<name>Heilgenstadt</name>
<instances>1</instances>
</variant>
<variant>
<name>Heiligenstadt</name>
<instances>3</instances>
</variant>
</variants>
<notes>
